id,name,name_norm,uic,latitude,longitude,parent_station_id,country,time_zone,is_city,is_main_station,is_airport
1,Château-Arnoux—St-Auban,Chateau-Arnoux-St-Auban,,44.08179,6.001625,,FR,Europe/Paris,True,False,False
2,Château-Arnoux—St-Auban,Chateau-Arnoux-St-Auban,8775123.0,44.0615651,5.9973734,1.0,FR,Europe/Paris,False,True,False
3,Château-Arnoux Mairie,Chateau-Arnoux Mairie,8775122.0,44.063863,6.011248,1.0,FR,Europe/Paris,False,False,False
4,Digne-les-Bains,Digne-les-Bains,9921024.0,44.35,6.35,,FR,Europe/Paris,True,False,False
6,Digne-les-Bains,Digne-les-Bains,8775149.0,44.088710133980605,6.222982406616211,4.0,FR,Europe/Paris,False,True,False
7,La Crau,La Crau,8775561.0,43.1449352,6.0687663,,FR,Europe/Paris,False,False,False
8,Aire-sur-l’Adour,Aire-sur-l'Adour,8767104.0,43.703854,-0.258269,,FR,Europe/Paris,True,False,False
9,Cagnes-sur-Mer,Cagnes-sur-Mer,8775632.0,43.65813,7.14864,5768.0,FR,Europe/Paris,False,True,False
10,Menton,Menton,,43.776486,7.504349,,FR,Europe/Paris,True,False,False
11,Menton,Menton,8775648.0,43.774444,7.4933,10.0,FR,Europe/Paris,False,True,False
12,Menton—Garavan,Menton-Garavan,8775649.0,43.785202,7.517297,10.0,FR,Europe/Paris,False,False,False
16,Vievola,Vievola,,,,,FR,Europe/Paris,True,False,False
17,Vievola,Vievola,8300618.0,,,16.0,FR,Europe/Paris,False,False,False
18,Vievola,Vievola,8775689.0,44.1125561,7.5627976,16.0,FR,Europe/Paris,False,True,False
19,Mandelieu-la-Napoule,Mandelieu-la-Napoule,8775759.0,43.523903,6.941313,,FR,Europe/Paris,False,False,False
23,Decazeville,Decazeville,,44.55,2.25,,FR,Europe/Paris,True,False,False
24,Decazeville Centre,Decazeville Centre,8761367.0,44.561434,2.255896,23.0,FR,Europe/Paris,False,True,False
25,Viviez—Decazeville,Viviez-Decazeville,8761366.0,44.5555678,2.2182582,23.0,FR,Europe/Paris,False,False,False
26,Decazeville Fontvergne,Decazeville Fontvergne,8761369.0,44.55563533558816,2.263741493225097,23.0,FR,Europe/Paris,False,False,False
27,St-Sever Calvados,St-Sever Calvados,,48.833333,-1.033333,29.0,FR,Europe/Paris,False,False,False
28,St-Sever Centre,St-Sever Centre,8741929.0,48.839517,-1.049283,29.0,FR,Europe/Paris,False,False,False
29,St-Sever Calvados,St-Sever Calvados,8744771.0,48.843608,-1.0516979,,FR,Europe/Paris,False,True,False
30,Vire,Vire,,48.83897,-0.88928,,FR,Europe/Paris,True,False,False
31,Vire Centre,Vire Centre,8744816.0,48.837638,-0.880538,30.0,FR,Europe/Paris,False,False,False
32,Vire,Vire,8744815.0,48.846329,-0.882884,30.0,FR,Europe/Paris,False,True,False
33,Marans,Marans,,46.3,-1.0,,FR,Europe/Paris,True,False,False
34,Marans Centre,Marans Centre,8738988.0,46.290815,-0.979212,33.0,FR,Europe/Paris,False,False,False
35,Marans,Marans,8748506.0,46.30433,-1.00127,33.0,FR,Europe/Paris,False,True,False
36,Uzerche,Uzerche,8759420.0,45.4407088,1.5702735,5607.0,FR,Europe/Paris,False,True,False
38,Dijon Ville,Dijon Ville,8771304.0,47.32337,5.027208,1782.0,FR,Europe/Paris,False,True,False
40,Pontrieux,Pontrieux,,48.7,-3.166667,,FR,Europe/Paris,True,False,False
41,Pontrieux Halte,Pontrieux Halte,8747383.0,48.6980361,-3.1644959,40.0,FR,Europe/Paris,False,False,False
42,Pontrieux,Pontrieux,8747384.0,48.7056437,-3.1574281,40.0,FR,Europe/Paris,False,True,False
43,Auboué,Auboue,8719168.0,49.216163,5.9714608,,FR,Europe/Paris,False,False,False
44,Périgueux,Perigueux,8759500.0,45.187408,0.707879,4957.0,FR,Europe/Paris,True,False,False
45,Besançon Viotte,Besancon Viotte,8771800.0,47.247019,6.022003,5029.0,FR,Europe/Paris,False,True,False
47,Douarnenez Office de Tourisme,Douarnenez Office de Tourisme,8747990.0,48.09336269013469,-4.3303728103637695,,FR,Europe/Paris,False,False,False
50,Concarneau,Concarneau,,47.866667,-3.916667,,FR,Europe/Paris,True,False,False
51,Concarneau Port,Concarneau Port,8747989.0,47.867055,-3.927593,50.0,FR,Europe/Paris,False,False,False
52,Concarneau,Concarneau,8747438.0,47.87767079094932,-3.920531272888184,50.0,FR,Europe/Paris,True,False,False
55,Aboncourt,Aboncourt,8719140.0,49.266667,6.35,,FR,Europe/Paris,False,False,False
56,Aiton—Bourgneuf,Aiton-Bourgneuf,8774124.0,45.566667,6.25,,FR,Europe/Paris,False,False,False
57,Colomiers,Colomiers,,43.616667,1.35,,FR,Europe/Paris,True,False,False
58,Colomiers,Colomiers,8761146.0,43.603734,1.334221,57.0,FR,Europe/Paris,False,True,False
59,Colomiers Lycée International,Colomiers Lycee International,8761192.0,43.6163055,1.3141157,57.0,FR,Europe/Paris,False,False,False
60,Labège,Labege,,43.533333,1.533333,,FR,Europe/Paris,True,False,False
61,Labège Innopole,Labege Innopole,8761200.0,43.5473613,1.5129784,60.0,FR,Europe/Paris,False,True,False
62,Labège Village,Labege Village,8761202.0,43.5305367,1.5329207,60.0,FR,Europe/Paris,False,False,False
63,Azay-le-Rideau Mairie,Azay-le-Rideau Mairie,8711029.0,47.266667,0.466667,5083.0,FR,Europe/Paris,False,False,False
64,Albas,Albas,8761375.0,44.466667,1.233333,9007.0,FR,Europe/Paris,False,True,False
65,Abancourt,Abancourt,8731375.0,49.6852237,1.7743058,,FR,Europe/Paris,False,False,False
66,Lunel,Lunel,,43.683333,4.133333,,FR,Europe/Paris,True,False,False
67,Lunel-Viel,Lunel-Viel,8777342.0,43.6811729,4.0937398,66.0,FR,Europe/Paris,False,False,False
68,Lunel,Lunel,8777340.0,43.679392,4.131086,66.0,FR,Europe/Paris,False,True,False
72,Moirans,Moirans,8774732.0,45.322185,5.581915,4774.0,FR,Europe/Paris,False,True,False
73,Arc-et-Senans,Arc-et-Senans,8771884.0,47.0303516,5.7767843,,FR,Europe/Paris,False,False,False
74,Accolay,Accolay,8768365.0,47.666667,3.716667,,FR,Europe/Paris,False,False,False
76,Dole Ville,Dole Ville,8771341.0,47.096084,5.488105,1845.0,FR,Europe/Paris,False,True,False
77,Dax,Dax,8767320.0,43.720472,-1.050301,5776.0,FR,Europe/Paris,True,False,False
80,Rezé,Reze,,47.2,-1.566667,,FR,Europe/Paris,True,False,False
82,Rezé—Pont-Rousseau,Reze-Pont-Rousseau,8748103.0,47.1932425,-1.5495445,80.0,FR,Europe/Paris,False,True,False
83,Cherbourg,Cherbourg,8744487.0,49.633505,-1.621515,,FR,Europe/Paris,False,False,False
84,Angers St-Laud,Angers St-Laud,8748400.0,47.464647,-0.55682,344.0,FR,Europe/Paris,False,True,False
85,Saumur,Saumur,8748760.0,47.269,-0.07136,5831.0,FR,Europe/Paris,False,True,False
87,Cérences Centre,Cerences Centre,8738819.0,48.91686,-1.437824,9462.0,FR,Europe/Paris,False,False,False
89,Reims,Reims,8724856.0,49.25,4.033333,,FR,Europe/Paris,True,False,False
90,Reims Maison Blanche,Reims Maison Blanche,8717127.0,49.2336853,4.0224927,89.0,FR,Europe/Paris,False,False,False
91,Champagne-Ardenne TGV,Champagne-Ardenne TGV,8717192.0,49.214806,3.994632,89.0,FR,Europe/Paris,False,False,False
92,Reims Ville,Reims Ville,8717100.0,49.258978,4.024435,89.0,FR,Europe/Paris,False,True,False
93,Laval,Laval,8747840.0,48.076206,-0.760907,4714.0,FR,Europe/Paris,True,False,False
94,Accous,Accous,8767278.0,42.983333,-0.6,,FR,Europe/Paris,False,False,False
95,Achiet,Achiet,8734204.0,50.1317525,2.780168,,FR,Europe/Paris,False,False,False
96,Louverné,Louverne,,48.133333,-0.7,,FR,Europe/Paris,True,False,False
97,Louverné,Louverne,8747851.0,48.1088564,-0.7144109,96.0,FR,Europe/Paris,False,True,False
98,Louverné Centre,Louverne Centre,8747991.0,48.12305356338282,-0.719904899597168,96.0,FR,Europe/Paris,False,False,False
99,Mayenne,Mayenne,,48.3,-0.616667,,FR,Europe/Paris,True,False,False
100,Mayenne,Mayenne,8747859.0,48.3064552166399,-0.6205880641937256,99.0,FR,Europe/Paris,False,True,False
101,Mayenne Centre,Mayenne Centre,8747860.0,48.2995040408328,-0.611339807510376,99.0,FR,Europe/Paris,False,False,False
104,Arnage,Arnage,,47.933333,0.183333,,FR,Europe/Paris,True,False,False
105,Arnage,Arnage,8739654.0,47.9285663,0.1898826,104.0,FR,Europe/Paris,False,True,False
106,Arnage Centre,Arnage Centre,8736033.0,47.937288,0.163801,104.0,FR,Europe/Paris,False,False,False
107,Carnac,Carnac,,47.583333,-3.083333,,FR,Europe/Paris,True,False,False
108,Plouharnel—Carnac,Plouharnel-Carnac,8747641.0,47.6042943,-3.1184482,107.0,FR,Europe/Paris,False,False,False
109,Les Sables-Blancs,Les Sables-Blancs,8747626.0,47.5755984,-3.1324467,107.0,FR,Europe/Paris,False,False,False
110,Carnac,Carnac,8728967.0,47.58455897234239,-3.0826091766357417,107.0,FR,Europe/Paris,False,True,False
111,St-Pierre-Quiberon,St-Pierre-Quiberon,,47.516667,-3.133333,,FR,Europe/Paris,True,False,False
112,L’Isthme,L'Isthme,8747627.0,47.5465051,-3.133699,111.0,FR,Europe/Paris,False,False,False
113,St-Pierre-Quiberon,St-Pierre-Quiberon,8747644.0,47.5210574,-3.138905,111.0,FR,Europe/Paris,False,True,False
114,Metz,Metz,8719203.0,49.109545,6.176593,4827.0,FR,Europe/Paris,False,True,False
115,Forbach,Forbach,,49.183333,6.9,,FR,Europe/Paris,True,False,False
117,Forbach,Forbach,8719300.0,49.1892278,6.9013184,115.0,FR,Europe/Paris,False,True,False
118,Sarreguemines,Sarreguemines,,49.10995,7.067471,,FR,Europe/Paris,True,False,False
119,Sarreguemines Poste,Sarreguemines Poste,8740690.0,49.110155,7.054923,118.0,FR,Europe/Paris,False,False,False
121,Sarreguemines,Sarreguemines,8719361.0,49.1073357,7.0686398,118.0,FR,Europe/Paris,False,True,False
122,Dunkerque,Dunkerque,8728100.0,51.03047,2.368961,,FR,Europe/Paris,False,False,False
123,Lille-Flandres,Lille-Flandres,8728600.0,50.636577,3.06987,4652.0,FR,Europe/Paris,False,True,False
124,Haubourdin,Haubourdin,8728609.0,50.6070495,2.990153,,FR,Europe/Paris,False,False,False
125,Tourcoing,Tourcoing,8728654.0,50.71683,3.16804,5840.0,FR,Europe/Paris,False,True,False
126,Nomain,Nomain,,50.5,3.25,,FR,Europe/Paris,True,False,False
127,Nomain-Ouvignies,Nomain-Ouvignies,8728681.0,50.5060755,3.2308175,126.0,FR,Europe/Paris,False,False,False
128,Nomain,Nomain,8728660.0,50.5023744,3.2063499,126.0,FR,Europe/Paris,False,True,False
129,Croix,Croix,,,,,FR,Europe/Paris,True,False,False
130,Croix—Wasquehal,Croix-Wasquehal,8728671.0,50.6785574,3.1380315,129.0,FR,Europe/Paris,False,True,False
131,Croix-l’Allumette,Croix-l'Allumette,8728105.0,50.6872009,3.1516591,129.0,FR,Europe/Paris,False,False,False
132,Roubaix,Roubaix,8728673.0,50.69561,3.16348,,FR,Europe/Paris,False,False,False
136,Jeumont,Jeumont,,50.3,4.1,,FR,Europe/Paris,True,False,False
137,Jeumont,Jeumont,8729501.0,50.29606,4.08645,136.0,FR,Europe/Paris,False,True,False
139,Bellegarde-sur-Valserine,Bellegarde-sur-Valserine,,46.107874,5.824213,,FR,Europe/Paris,True,False,False
140,Bellegarde-sur-Valserine,Bellegarde-sur-Valserine,8774500.0,46.109425,5.823483,139.0,FR,Europe/Paris,False,True,False
141,Bellegarde-sur-Valserine Lycée Musinens,Bellegarde-sur-Valserine Lycee Musinens,8774272.0,46.115336,5.794132,139.0,FR,Europe/Paris,False,False,False
143,Briouze,Briouze,8744808.0,48.7018622,-0.3682036,,FR,Europe/Paris,False,False,False
148,Calais Ville,Calais Ville,8731726.0,50.952613,1.848185,1417.0,FR,Europe/Paris,False,True,False
149,Boulogne-sur-Mer Ville,Boulogne-sur-Mer Ville,8731758.0,50.7157,1.60964,5758.0,FR,Europe/Paris,False,True,False
150,Allenc,Allenc,8778365.0,44.541296,3.6638926,,FR,Europe/Paris,False,False,False
151,Pau,Pau,8767200.0,43.291762,-0.369626,5006.0,FR,Europe/Paris,False,True,False
152,Hendaye,Hendaye,8767700.0,43.353132,-1.781724,5785.0,FR,Europe/Paris,True,False,False
153,Strasbourg,Strasbourg,8721202.0,48.584967,7.734584,5260.0,FR,Europe/Paris,False,True,False
154,Mertzwiller,Mertzwiller,,48.866667,7.683333,,FR,Europe/Paris,True,False,False
155,Mertzwiller,Mertzwiller,8721320.0,48.872013,7.6781895,154.0,FR,Europe/Paris,False,True,False
157,Colmar,Colmar,8718201.0,48.073201,7.346967,1349.0,FR,Europe/Paris,False,True,False
158,Mulhouse,Mulhouse,8718206.0,47.742224,7.342396,4753.0,FR,Europe/Paris,True,False,False
159,St-Louis (Haut Rhin),St-Louis (Haut Rhin),,47.583333,7.566667,,FR,Europe/Paris,True,False,False
160,St-Louis La-Chaussée,St-Louis La-Chaussee,8718101.0,47.6094781,7.5312095,159.0,FR,Europe/Paris,False,False,False
161,St-Louis,St-Louis,8718213.0,47.5906094,7.5559882,159.0,FR,Europe/Paris,False,True,False
162,Thann,Thann,,,,,FR,Europe/Paris,True,False,False
163,Thann,Thann,8718256.0,47.8088208,7.1069795,162.0,FR,Europe/Paris,False,True,False
164,Thann—St-Jacques,Thann-St-Jacques,8718288.0,47.8133155,7.0938473,162.0,FR,Europe/Paris,False,False,False
165,Givors Canal,Givors Canal,8772243.0,45.5957662,4.7725754,3263.0,FR,Europe/Paris,False,False,False
166,Aspach-le-Haut,Aspach-le-Haut,,47.65,7.233333,,FR,Europe/Paris,True,False,False
167,Aspach-le-Haut,Aspach-le-Haut,8767414.0,47.769396,7.142379,166.0,FR,Europe/Paris,False,True,False
168,Aspach-le-Bas,Aspach-le-Bas,8721537.0,47.759832,7.152375,166.0,FR,Europe/Paris,False,False,False
171,Avignon Centre,Avignon Centre,8776500.0,43.9419,4.805281,489.0,FR,Europe/Paris,False,True,False
172,Le Mans,Le Mans,8739600.0,47.995034,0.19014,4661.0,FR,Europe/Paris,True,False,False
173,Joué-lès-Tours Berthelot,Joue-les-Tours Berthelot,8711028.0,47.35,0.666667,4580.0,FR,Europe/Paris,False,False,False
174,Eu,Eu,,50.05,1.416667,,FR,Europe/Paris,True,False,False
175,Eu-la-Mouillette,Eu-la-Mouillette,8731676.0,50.04890671485088,1.4253687858581543,174.0,FR,Europe/Paris,False,False,False
176,Eu,Eu,8731753.0,50.0541988,1.416837,174.0,FR,Europe/Paris,False,True,False
177,Alleyras,Alleyras,8773188.0,44.919217,3.673517,,FR,Europe/Paris,False,False,False
178,Le Havre,Le Havre,8741301.0,49.492996,0.125677,4630.0,FR,Europe/Paris,True,False,False
179,Harfleur,Harfleur,,49.506596,0.198269,,FR,Europe/Paris,True,False,False
180,Harfleur-Halte,Harfleur-Halte,8741370.0,49.5059181,0.192085,179.0,FR,Europe/Paris,False,False,False
181,Harfleur,Harfleur,8741330.0,49.5136336,0.1989828,179.0,FR,Europe/Paris,False,True,False
182,Montivilliers,Montivilliers,,49.55,0.2,,FR,Europe/Paris,True,False,False
184,Montivilliers,Montivilliers,8741372.0,49.5429758,0.189426,182.0,FR,Europe/Paris,False,True,False
186,Dieppe,Dieppe,8741501.0,49.921788,1.081133,1926.0,FR,Europe/Paris,False,True,False
187,Fontainebleau—Avon,Fontainebleau-Avon,8768221.0,48.416371,2.72634,,FR,Europe/Paris,False,False,False
188,Péronne,Peronne,,50.0,2.65,,FR,Europe/Paris,True,False,False
189,Péronne Centre,Peronne Centre,8731341.0,49.934997,2.938987,188.0,FR,Europe/Paris,False,True,False
190,Péronne la Chapelette,Peronne la Chapelette,8731386.0,49.924488,2.933359,188.0,FR,Europe/Paris,False,False,False
191,Albi Ville,Albi Ville,8761500.0,43.92238,2.137958,4604.0,FR,Europe/Paris,False,True,False
192,Orléans Centre,Orleans Centre,8754300.0,47.90796,1.904666,4894.0,FR,Europe/Paris,False,True,False
194,Vendôme,Vendome,8757455.0,47.8021498,1.0678728,5846.0,FR,Europe/Paris,False,False,False
195,Fréjus,Frejus,8775750.0,43.432032,6.732941,4583.0,FR,Europe/Paris,True,False,False
196,Fontenay-le-Comte,Fontenay-le-Comte,8748561.0,46.46785957735252,-0.809592604637146,2776.0,FR,Europe/Paris,False,True,False
197,Acheux-Franleu,Acheux-Franleu,8731674.0,50.0826021,1.6574207,,FR,Europe/Paris,False,False,False
198,St-Hilaire-de-Riez,St-Hilaire-de-Riez,,,,,FR,Europe/Paris,True,False,False
199,St-Hilaire-de-Riez,St-Hilaire-de-Riez,8748656.0,46.7166736,-1.9496838,198.0,FR,Europe/Paris,False,True,False
200,St-Hilaire-de-Riez Centre,St-Hilaire-de-Riez Centre,8738992.0,46.718728,-1.944618,198.0,FR,Europe/Paris,False,False,False
201,La Clayette—Baudemont,La Clayette-Baudemont,8769473.0,46.2881469,4.2984195,,FR,Europe/Paris,False,False,False
203,Tours,Tours,8757100.0,47.389781,0.693703,5338.0,FR,Europe/Paris,False,True,False
204,Cambrai,Cambrai,8734552.0,50.17662,3.24118,,FR,Europe/Paris,False,False,False
205,Aiguebelle,Aiguebelle,8774125.0,45.5437225,6.3067175,,FR,Europe/Paris,False,False,False
207,Agen,Agen,8758600.0,44.208311,0.620932,17433.0,FR,Europe/Paris,False,False,False
208,Ervy-le-Châtel Halles,Ervy-le-Chatel Halles,8711034.0,48.033333,3.916667,5684.0,FR,Europe/Paris,False,False,False
209,Fays-la-Chapelle,Fays-la-Chapelle,8711037.0,48.133333,4.016667,,FR,Europe/Paris,False,False,False
210,Agonac,Agonac,8759515.0,45.2865966,0.7486706,,FR,Europe/Paris,False,False,False
211,Limoges Bénédictins,Limoges Benedictins,8759200.0,45.836089,1.267356,4651.0,FR,Europe/Paris,False,True,False
212,Modane,Modane,8774200.0,45.193365,6.658161,,FR,Europe/Paris,False,False,False
213,Agos,Agos,8762007.0,43.033333,-0.066667,,FR,Europe/Paris,False,False,False
214,Argenton-sur-Creuse,Argenton-sur-Creuse,,46.583333,1.516667,,FR,Europe/Paris,True,False,False
215,Argenton-sur-Creuse,Argenton-sur-Creuse,8759712.0,46.592248,1.518305,214.0,FR,Europe/Paris,False,True,False
216,Argenton-sur-Creuse Gare Routière,Argenton-sur-Creuse Gare Routiere,8720156.0,46.587009,1.503158,214.0,FR,Europe/Paris,False,False,False
217,Roye,Roye,8731350.0,49.69805004945369,2.789722681045532,17478.0,FR,Europe/Paris,False,True,False
218,Agay,Agay,8775755.0,43.4313701,6.8564997,,FR,Europe/Paris,False,False,False
220,Versailles,Versailles,9903008.0,48.7526,2.5735,,FR,Europe/Paris,True,False,False
223,Versailles-Chantiers,Versailles-Chantiers,8739300.0,48.7958264,2.1358827,220.0,FR,Europe/Paris,False,True,False
224,Villeneuve-au-Chemin,Villeneuve-au-Chemin,8711036.0,48.082895,3.844281,,FR,Europe/Paris,False,False,False
230,Salvagnac,Salvagnac,8711015.0,43.916667,1.7,,FR,Europe/Paris,False,False,False
232,Maussac,Maussac,8715241.0,45.483333,2.15,,FR,Europe/Paris,False,False,False
233,Aix-en-Provence TGV,Aix-en-Provence TGV,8731901.0,43.455237,5.317534,23614.0,FR,Europe/Paris,False,False,False
234,Moustéru,Mousteru,8747351.0,48.5074512,-3.2435052,,FR,Europe/Paris,False,False,False
239,Aillevillers,Aillevillers,8718562.0,47.9138876,6.3372988,,FR,Europe/Paris,False,False,False
241,Ailly-sur-Noye,Ailly-sur-Noye,8731322.0,49.75448,2.36419,,FR,Europe/Paris,False,False,False
246,Ailly-sur-Somme,Ailly-sur-Somme,8731309.0,49.92838,2.20059,,FR,Europe/Paris,False,False,False
249,Aigues-Vives (Gard),Aigues-Vives (Gard),8777512.0,43.733333,4.166667,,FR,Europe/Paris,False,False,False
252,Aiserey,Aiserey,8771363.0,47.170501,5.1582447,,FR,Europe/Paris,False,False,False
264,Vicq-sur-Breuilh,Vicq-sur-Breuilh,8711511.0,45.645578,1.384455,,FR,Europe/Paris,False,False,False
265,St-Hilaire-Bonneval,St-Hilaire-Bonneval,8711512.0,45.716667,1.366667,,FR,Europe/Paris,False,False,False
266,Boisseuil,Boisseuil,8711513.0,45.766667,1.316667,,FR,Europe/Paris,False,False,False
267,Azay-sur-Indre,Azay-sur-Indre,8711533.0,47.2,0.95,,FR,Europe/Paris,False,False,False
286,Mouroux,Mouroux,8711628.0,48.8139949,3.0423421,,FR,Europe/Paris,False,False,False
292,Alet-les-Bains,Alet-les-Bains,8761518.0,42.9974445,2.2518325,,FR,Europe/Paris,False,False,False
293,Allassac,Allassac,8759423.0,45.2589385,1.4731471,,FR,Europe/Paris,False,False,False
295,Albens,Albens,8774611.0,45.785946,5.9483418,,FR,Europe/Paris,False,False,False
302,Pierre-Buffière Ville,Pierre-Buffiere Ville,8740899.0,45.7,1.35,5349.0,FR,Europe/Paris,False,False,False
303,Aix la Marsalouse,Aix la Marsalouse,8759429.0,45.614206266734726,2.3984473943710327,,FR,Europe/Paris,False,False,False
304,La Ferté-sous-Jouarre,La Ferte-sous-Jouarre,8711651.0,48.950741,3.125577,,FR,Europe/Paris,False,False,False
311,Merten,Merten,8719321.0,49.25,6.666667,,FR,Europe/Paris,False,False,False
313,La Ferté-Milon,La Ferte-Milon,8711667.0,49.1797269,3.1207223,,FR,Europe/Paris,False,False,False
314,Neuilly-St-Front,Neuilly-St-Front,8711668.0,49.1871466,3.2710249,,FR,Europe/Paris,False,False,False
315,Oulchy-Breny,Oulchy-Breny,8711669.0,49.1876743,3.3524421,,FR,Europe/Paris,False,False,False
316,Albi Madeleine,Albi Madeleine,8761519.0,43.938011,2.1409629,4604.0,FR,Europe/Paris,False,False,False
317,Ambérieu,Amberieu,8774371.0,45.954008,5.342388,,FR,Europe/Paris,False,False,False
322,Auxon Église,Auxon Eglise,8711711.0,48.092235,3.923863,9587.0,FR,Europe/Paris,False,True,False
323,Rehainviller,Rehainviller,8711713.0,48.566667,6.466667,,FR,Europe/Paris,False,False,False
324,St-Pierremont,St-Pierremont,8711714.0,48.433333,6.583333,,FR,Europe/Paris,False,False,False
325,Leintrey,Leintrey,8711716.0,48.616667,6.733333,,FR,Europe/Paris,False,False,False
326,Amenoncourt,Amenoncourt,8711717.0,48.626383,6.78441,,FR,Europe/Paris,False,False,False
327,Magnac Bourg,Magnac Bourg,8745000.0,45.61815,1.43097,,FR,Europe/Paris,False,False,False
328,Aigues-Mortes,Aigues-Mortes,8777585.0,43.5709008,4.1912102,,FR,Europe/Paris,False,False,False
329,Meuzac,Meuzac,8745001.0,45.55,1.433333,,FR,Europe/Paris,False,False,False
335,Orville,Orville,8711726.0,47.55,5.2,,FR,Europe/Paris,False,False,False
336,Torcenay,Torcenay,8711727.0,47.813425,5.470142,,FR,Europe/Paris,False,False,False
337,Rosoy-sur-Amance,Rosoy-sur-Amance,8711728.0,47.833333,5.533333,,FR,Europe/Paris,False,False,False
338,Bize,Bize,8711730.0,47.833333,5.633333,,FR,Europe/Paris,False,False,False
339,Anrosey,Anrosey,8711731.0,47.833333,5.666667,,FR,Europe/Paris,False,False,False
340,Pisseloup,Pisseloup,8711732.0,47.833333,5.733333,,FR,Europe/Paris,False,False,False
341,Bétoncourt-sur-Mance,Betoncourt-sur-Mance,8711733.0,47.830622,5.759083,,FR,Europe/Paris,False,False,False
342,Vernois-sur-Mance,Vernois-sur-Mance,8711734.0,47.851944,5.794042,,FR,Europe/Paris,False,False,False
343,Andelot,Andelot,8771510.0,46.8594671,5.923584,,FR,Europe/Paris,False,False,False
344,Angers,Angers,,47.466667,-0.55,,FR,Europe/Paris,True,False,False
345,Angers Maître École,Angers Maitre Ecole,8748404.0,47.4670899,-0.531894,344.0,FR,Europe/Paris,False,False,False
346,Blondefontaine,Blondefontaine,8711736.0,47.883333,5.866667,,FR,Europe/Paris,False,False,False
347,Angoulême,Angouleme,8758300.0,45.653572,0.164608,,FR,Europe/Paris,False,False,False
348,Raincourt,Raincourt,8711737.0,47.859879227409714,5.885946750640868,,FR,Europe/Paris,False,False,False
349,Gévigney,Gevigney,8711738.0,47.8,5.933333,,FR,Europe/Paris,False,False,False
350,Baulay,Baulay,8711739.0,47.783333,6.016667,,FR,Europe/Paris,False,False,False
351,Amoncourt,Amoncourt,8711740.0,47.733333,6.066667,,FR,Europe/Paris,False,False,False
352,Chaux-les-Port,Chaux-les-Port,8711741.0,47.713834,6.03311,,FR,Europe/Paris,False,False,False
353,Charmoille,Charmoille,8711742.0,47.666667,6.1,,FR,Europe/Paris,False,False,False
354,Pusey,Pusey,8711743.0,47.65,6.133333,,FR,Europe/Paris,False,False,False
355,Martigny-les-Gerbonvaux,Martigny-les-Gerbonvaux,8711744.0,48.45,5.8,,FR,Europe/Paris,False,False,False
356,Autreville,Autreville,8711745.0,48.483333,5.85,,FR,Europe/Paris,False,False,False
358,Mont-le-Vignoble,Mont-le-Vignoble,8711747.0,48.616667,5.85,,FR,Europe/Paris,False,False,False
359,Hestroff,Hestroff,8711749.0,49.266667,6.433333,,FR,Europe/Paris,False,False,False
360,Vaudreching,Vaudreching,8711750.0,49.284483,6.523714,,FR,Europe/Paris,False,False,False
361,Alzing,Alzing,8711751.0,49.283333,6.55,,FR,Europe/Paris,False,False,False
363,Villette,Villette,8711756.0,49.474443,5.541571,,FR,Europe/Paris,False,False,False
364,Colmey—Flabeuville,Colmey-Flabeuville,8711757.0,49.457202,5.555477,,FR,Europe/Paris,False,False,False
365,Montigny-sur-Chiers,Montigny-sur-Chiers,8711759.0,49.483333,5.666667,,FR,Europe/Paris,False,False,False
366,Lexy,Lexy,8711760.0,49.5,5.733333,8749.0,FR,Europe/Paris,False,True,False
367,Ingolsheim,Ingolsheim,8711761.0,48.97402,7.935905,,FR,Europe/Paris,False,False,False
372,Hertzing,Hertzing,8711768.0,48.683333,6.95,,FR,Europe/Paris,False,False,False
373,Bébing,Bebing,8711769.0,48.7,7.0,,FR,Europe/Paris,False,False,False
376,Drouilly,Drouilly,8711778.0,48.766667,4.516667,,FR,Europe/Paris,False,False,False
377,Aiguillon,Aiguillon,8758669.0,44.2987224,0.3352388,,FR,Europe/Paris,False,False,False
378,St-Martin-aux-Champs,St-Martin-aux-Champs,8711779.0,48.816667,4.483333,,FR,Europe/Paris,False,False,False
379,Bouilly,Bouilly,8711790.0,48.2,4.0,,FR,Europe/Paris,False,False,False
380,Chamoy,Chamoy,8711791.0,48.116667,3.966667,,FR,Europe/Paris,False,False,False
381,Jeugny,Jeugny,8711792.0,48.128443,4.039581,,FR,Europe/Paris,False,False,False
382,Montigny-les-Monts,Montigny-les-Monts,8711793.0,48.1,3.95,,FR,Europe/Paris,False,False,False
383,St-Germain Mairie,St-Germain Mairie,8711794.0,48.259911,4.007804,,FR,Europe/Paris,False,False,False
384,St-Jean-de-Bonneval,St-Jean-de-Bonneval,8711795.0,48.166667,4.05,,FR,Europe/Paris,False,False,False
385,St-Phal Monument aux morts,St-Phal Monument aux morts,8711796.0,48.116667,4.0,,FR,Europe/Paris,False,False,False
386,Villery,Villery,8711797.0,48.165524,4.023086,,FR,Europe/Paris,False,False,False
387,Neuvy-Sautour RN,Neuvy-Sautour RN,8711798.0,48.033333,3.8,4529.0,FR,Europe/Paris,False,False,False
388,Brienon Mairie,Brienon Mairie,8711799.0,48.0,3.616667,9151.0,FR,Europe/Paris,False,False,False
389,St-Lyé,St-Lye,8711806.0,48.366667,4.0,,FR,Europe/Paris,False,False,False
390,Payns,Payns,8711807.0,48.383333,3.966667,,FR,Europe/Paris,False,False,False
391,Savières,Savieres,8711808.0,48.416667,3.95,,FR,Europe/Paris,False,False,False
392,St-Mesmin,St-Mesmin,8711809.0,48.45,3.933333,,FR,Europe/Paris,False,False,False
393,Vallant-St-Georges,Vallant-St-Georges,8711811.0,48.466168,3.899331,,FR,Europe/Paris,False,False,False
394,Châtres,Chatres,8711813.0,48.5,3.85,,FR,Europe/Paris,False,False,False
395,Maizières-La Grande-Paroisse,Maizieres-La Grande-Paroisse,8711814.0,48.516667,3.783333,,FR,Europe/Paris,False,False,False
396,Romilly-sur-Seine,Romilly-sur-Seine,8711815.0,48.514433,3.728887,5092.0,FR,Europe/Paris,False,True,False
399,Marnay-sur-Seine,Marnay-sur-Seine,8711818.0,48.516667,3.55,,FR,Europe/Paris,False,False,False
400,Nogent-sur-Seine,Nogent-sur-Seine,8711819.0,48.49783878,3.49372888,4864.0,FR,Europe/Paris,False,True,False
401,Aigueperse,Aigueperse,8773412.0,46.0147884,3.1982621,,FR,Europe/Paris,False,False,False
402,Vendeuvre,Vendeuvre,8711825.0,48.2400686,4.4672135,5625.0,FR,Europe/Paris,False,True,False
403,Bar-sur-Aube,Bar-sur-Aube,8711829.0,48.2385399,4.7066708,5132.0,FR,Europe/Paris,False,True,False
404,St-Florentin Hôtel de Ville,St-Florentin Hotel de Ville,8711861.0,48.0,3.733333,5193.0,FR,Europe/Paris,False,False,False
405,Laroche-Migennes Hôtel Terminus,Laroche-Migennes Hotel Terminus,8711862.0,,,9150.0,FR,Europe/Paris,False,False,False
406,Foug,Foug,8714103.0,48.6792561,5.7912761,,FR,Europe/Paris,False,False,False
407,Fontenoy-sur-Moselle,Fontenoy-sur-Moselle,8714105.0,48.711721,5.9803654,,FR,Europe/Paris,False,False,False
408,Liverdun,Liverdun,8714106.0,48.7493158,6.0617374,,FR,Europe/Paris,False,False,False
409,Champigneulles,Champigneulles,8714108.0,48.73499,6.16913,,FR,Europe/Paris,False,False,False
410,Laneuveville-devant-Nancy,Laneuveville-devant-Nancy,8714109.0,48.65564,6.22792,,FR,Europe/Paris,False,False,False
411,Argèles-Gazost,Argeles-Gazost,8767174.0,43.1,-0.05,,FR,Europe/Paris,False,False,False
412,Arches,Arches,8714441.0,48.1198133,6.5283085,,FR,Europe/Paris,False,False,False
413,Varangéville—St-Nicolas,Varangeville-St-Nicolas,8714110.0,48.63533929,6.31286037,,FR,Europe/Paris,False,False,False
414,Dombasle-sur-Meurthe,Dombasle-sur-Meurthe,8714111.0,48.623275,6.343478,,FR,Europe/Paris,False,False,False
415,Rosières-aux-Salines,Rosieres-aux-Salines,8714112.0,48.60563,6.350457,,FR,Europe/Paris,False,False,False
416,Argelès-sur-Mer,Argeles-sur-Mer,8778423.0,42.54397,3.022349,,FR,Europe/Paris,False,False,False
417,Marainviller,Marainviller,8714116.0,48.583333,6.6,,FR,Europe/Paris,False,False,False
419,Embermenil,Embermenil,8714118.0,48.633333,6.7,,FR,Europe/Paris,False,False,False
421,Einvaux,Einvaux,8714120.0,48.5034859,6.3932959,,FR,Europe/Paris,False,False,False
422,Bayon,Bayon,8714121.0,48.468046,6.322569,,FR,Europe/Paris,False,False,False
423,Argentan,Argentan,8744453.0,48.738545,-0.025291,,FR,Europe/Paris,False,False,False
424,Xermamenil—Lamath,Xermamenil-Lamath,8714122.0,48.534981,6.457553,,FR,Europe/Paris,False,False,False
425,Arvant,Arvant,8773425.0,45.3653797,3.3106747,,FR,Europe/Paris,False,False,False
426,Gerbeviller,Gerbeviller,8714123.0,48.5,6.516667,,FR,Europe/Paris,False,False,False
427,Moyen,Moyen,8714124.0,48.483333,6.566667,,FR,Europe/Paris,False,False,False
428,Soulosse,Soulosse,8714125.0,48.40923,5.739127,,FR,Europe/Paris,False,False,False
429,Magnières,Magnieres,8714126.0,48.45,6.566667,9107.0,FR,Europe/Paris,False,False,False
430,Ascq,Ascq,8728686.0,50.6218591,3.1598992,,FR,Europe/Paris,False,False,False
432,Coussey,Coussey,8714134.0,48.416667,5.683333,,FR,Europe/Paris,False,False,False
433,Domremy-la-Pucelle,Domremy-la-Pucelle,8714136.0,48.45,5.683333,,FR,Europe/Paris,False,False,False
434,Auxerre-St-Gervais,Auxerre-St-Gervais,8768357.0,47.797645,3.58514,26819.0,FR,Europe/Paris,False,False,False
435,Aspres-sur-Buëch,Aspres-sur-Buech,8776325.0,44.519428,5.7545655,,FR,Europe/Paris,False,False,False
436,St-Clément-Laronxe,St-Clement-Laronxe,8714137.0,48.5312283,6.6081108,,FR,Europe/Paris,False,False,False
437,Chenevières,Chenevieres,8714138.0,48.5195062,6.6325613,,FR,Europe/Paris,False,False,False
438,Ménil-Flin,Menil-Flin,8714139.0,48.5050204,6.6592265,,FR,Europe/Paris,False,False,False
439,Azerailles,Azerailles,8714140.0,48.4913355,6.695778,,FR,Europe/Paris,False,False,False
440,Baccarat,Baccarat,8714141.0,48.452405,6.74383,,FR,Europe/Paris,False,False,False
441,Bertrichamps,Bertrichamps,8714142.0,48.4283359,6.7912343,,FR,Europe/Paris,False,False,False
442,Thiaville,Thiaville,8714143.0,48.4139874,6.8102635,,FR,Europe/Paris,False,False,False
443,Houdemont,Houdemont,8714147.0,48.645478,6.1797255,,FR,Europe/Paris,False,False,False
444,Ludres,Ludres,8714148.0,48.6219545,6.1709118,,FR,Europe/Paris,False,False,False
445,Messein,Messein,8714149.0,48.6128788,6.1378364,,FR,Europe/Paris,False,False,False
446,Neuves-Maisons,Neuves-Maisons,8714150.0,48.6147666,6.1078904,,FR,Europe/Paris,False,False,False
447,Pont-St-Vincent,Pont-St-Vincent,8714152.0,48.6023732,6.1031502,,FR,Europe/Paris,False,False,False
448,Aixe-sur-Vienne,Aixe-sur-Vienne,8759266.0,45.7965002,1.1456892,,FR,Europe/Paris,False,False,False
449,Adamswiller,Adamswiller,8721568.0,48.903757656798746,7.201194763183593,,FR,Europe/Paris,False,False,False
450,Bainville,Bainville,8714153.0,48.5863794,6.099327,,FR,Europe/Paris,False,False,False
452,Xeuilley,Xeuilley,8714154.0,48.5697134,6.1022334,,FR,Europe/Paris,False,False,False
453,Pierreville,Pierreville,8714155.0,48.5488838,6.1241409,,FR,Europe/Paris,False,False,False
454,Pulligny—Autrey,Pulligny-Autrey,8714156.0,48.5360716,6.1374765,,FR,Europe/Paris,False,False,False
455,Ceintrey,Ceintrey,8714157.0,48.523865,6.1572868,,FR,Europe/Paris,False,False,False
456,Tantonville,Tantonville,8714159.0,48.4838433,6.129105,,FR,Europe/Paris,False,False,False
457,Vézelise,Vezelise,8714160.0,48.4805518,6.1006508,,FR,Europe/Paris,False,False,False
458,Praye-sous-Vaudémont,Praye-sous-Vaudemont,8714162.0,48.4327891,6.1006981,,FR,Europe/Paris,False,False,False
459,Diarville,Diarville,8714164.0,48.3975653,6.1264922,,FR,Europe/Paris,False,False,False
460,Domgermain,Domgermain,8714170.0,48.65,5.816667,,FR,Europe/Paris,False,False,False
461,Charmes-la-Côte,Charmes-la-Cote,8714171.0,48.633333,5.833333,,FR,Europe/Paris,False,False,False
462,Blenod-les-Toul,Blenod-les-Toul,8714172.0,48.6,5.833333,,FR,Europe/Paris,False,False,False
463,Bulligny—Crézilles,Bulligny-Crezilles,8714173.0,48.576646,5.848966,,FR,Europe/Paris,False,False,False
464,Barisey-la-Côte,Barisey-la-Cote,8714175.0,48.55,5.85,,FR,Europe/Paris,False,False,False
465,Pompey,Pompey,8714178.0,48.77304,6.13061,,FR,Europe/Paris,False,False,False
466,Marbache,Marbache,8714179.0,48.8010405,6.1091755,,FR,Europe/Paris,False,False,False
467,Belleville,Belleville,8714180.0,48.8195721,6.1018641,,FR,Europe/Paris,False,False,False
468,Dieulouard,Dieulouard,8714181.0,48.843367,6.071489,,FR,Europe/Paris,False,False,False
469,Pont-à-Mousson,Pont-a-Mousson,8714182.0,48.90058,6.050842,,FR,Europe/Paris,False,False,False
470,Luzy-sur-Marne,Luzy-sur-Marne,8714204.0,48.05,5.183333,,FR,Europe/Paris,False,False,False
471,Chaudenay,Chaudenay,8714213.0,47.833333,5.5,,FR,Europe/Paris,False,False,False
472,Hortes,Hortes,8714214.0,47.838739,5.553454,,FR,Europe/Paris,False,False,False
473,Charmoy—Fayl-Billot,Charmoy-Fayl-Billot,8714215.0,47.809308,5.604145,,FR,Europe/Paris,False,False,False
474,Auch,Auch,8761174.0,43.647488,0.596661,,FR,Europe/Paris,False,False,False
475,Laferté-sur-Amance,Laferte-sur-Amance,8714216.0,47.833333,5.7,,FR,Europe/Paris,False,False,False
476,Vitrey—Vernois,Vitrey-Vernois,8714217.0,47.830406,5.779407,,FR,Europe/Paris,False,False,False
477,Barges,Barges,8714218.0,47.866667,5.85,,FR,Europe/Paris,False,False,False
479,Bologne,Bologne,8714222.0,48.1986877,5.1342228,4640.0,FR,Europe/Paris,False,True,False
480,Vignory,Vignory,8714223.0,48.2701366,5.1241594,5672.0,FR,Europe/Paris,False,True,False
481,Aurillac,Aurillac,8764500.0,44.921092,2.435655,,FR,Europe/Paris,False,False,False
482,Froncles,Froncles,8714224.0,48.2964154,5.1419387,,FR,Europe/Paris,False,False,False
483,Gudmont,Gudmont,8714226.0,48.3382279,5.1408271,5551.0,FR,Europe/Paris,False,True,False
484,Donjeux,Donjeux,8714227.0,48.3658544,5.1482245,,FR,Europe/Paris,False,False,False
485,Avignon TGV,Avignon TGV,8731896.0,43.921586,4.786079,489.0,FR,Europe/Paris,False,False,False
486,Avail,Avail,8730469.0,46.960187,2.05319,,FR,Europe/Paris,False,False,False
487,Damblain,Damblain,8714249.0,48.0937645,5.6563504,,FR,Europe/Paris,False,False,False
488,Châtillon-sur-Seine,Chatillon-sur-Seine,8714255.0,47.86126131518925,4.574829339981079,,FR,Europe/Paris,False,False,False
489,Avignon,Avignon,9900010.0,43.95,4.816667,,FR,Europe/Paris,True,False,False
493,Aguilcourt—Variscourt,Aguilcourt-Variscourt,8717170.0,49.408017,3.973137,,FR,Europe/Paris,False,False,False
494,Prauthoy,Prauthoy,8714261.0,47.666667,5.283333,,FR,Europe/Paris,False,False,False
495,Vaux-sous-Aubigny,Vaux-sous-Aubigny,8714262.0,47.657894,5.291365,,FR,Europe/Paris,False,False,False
497,Selongey,Selongey,8714264.0,47.58704,5.18604,,FR,Europe/Paris,False,False,False
499,Maatz,Maatz,8714266.0,47.7,5.45,,FR,Europe/Paris,False,False,False
500,Champlitte,Champlitte,8714268.0,47.616667,5.516667,,FR,Europe/Paris,False,False,False
501,Neuvelle-lès-Champlitte,Neuvelle-les-Champlitte,8714269.0,47.583333,5.55,,FR,Europe/Paris,False,False,False
502,Oyrières,Oyrieres,8714270.0,47.533333,5.566667,,FR,Europe/Paris,False,False,False
503,Chargey-les-Gray,Chargey-les-Gray,8714271.0,47.483333,5.583333,,FR,Europe/Paris,False,False,False
504,Til-Châtel,Til-Chatel,8714278.0,47.514121,5.169067,,FR,Europe/Paris,False,False,False
505,Velles,Velles,8714289.0,47.833292,5.723971,,FR,Europe/Paris,False,False,False
506,Vraincourt-Viéville,Vraincourt-Vieville,8714302.0,48.2366981,5.1239383,,FR,Europe/Paris,False,False,False
507,Le Pailly,Le Pailly,8714310.0,47.8,5.416667,,FR,Europe/Paris,False,False,False
508,Rivières-le-Bois,Rivieres-le-Bois,8714320.0,47.733333,5.433333,,FR,Europe/Paris,False,False,False
509,Grandchamp,Grandchamp,8714321.0,47.716667,5.45,,FR,Europe/Paris,False,False,False
510,Leffond,Leffond,8714322.0,47.666667,5.466667,,FR,Europe/Paris,False,False,False
512,Le Martoulet,Le Martoulet,8745002.0,45.577772,1.471192,,FR,Europe/Paris,False,False,False
513,Coublanc,Coublanc,8714335.0,47.7,5.466667,,FR,Europe/Paris,False,False,False
514,Écuelle,Ecuelle,8714336.0,47.55,5.55,,FR,Europe/Paris,False,False,False
515,Corgirnon,Corgirnon,8714337.0,47.8,5.5,,FR,Europe/Paris,False,False,False
516,Rougeux,Rougeux,8714338.0,47.816667,5.583333,,FR,Europe/Paris,False,False,False
519,Beausoleil,Beausoleil,8745003.0,43.75,7.433333,,FR,Europe/Paris,False,False,False
520,Roville-aux-Chênes,Roville-aux-Chenes,8714359.0,48.383333,6.6,,FR,Europe/Paris,False,False,False
521,Docelles—Cheniménil,Docelles-Chenimenil,8714403.0,48.1436134,6.6104793,,FR,Europe/Paris,False,False,False
522,Lépanges,Lepanges,8714404.0,48.1727165,6.6722884,,FR,Europe/Paris,False,False,False
523,Charmes,Charmes,8714405.0,48.378483,6.301537,,FR,Europe/Paris,False,False,False
524,Vincey,Vincey,8714406.0,48.3436471,6.3355129,,FR,Europe/Paris,False,False,False
525,Châtel—Nomexy,Chatel-Nomexy,8714407.0,48.307156,6.387807,,FR,Europe/Paris,False,False,False
526,Igney,Igney,8714408.0,48.2709639,6.3995463,,FR,Europe/Paris,False,False,False
527,Thaon,Thaon,8714409.0,48.24465,6.416384,,FR,Europe/Paris,False,False,False
528,Raves—Ban-de-Laveline,Raves-Ban-de-Laveline,8714410.0,48.265723,7.0378799,,FR,Europe/Paris,False,False,False
529,Xertigny,Xertigny,8714412.0,48.0530255,6.3767687,,FR,Europe/Paris,False,False,False
530,Bains-les-Bains,Bains-les-Bains,8714414.0,47.9811282,6.2952683,,FR,Europe/Paris,False,False,False
531,Laveline-devant-Bruyères,Laveline-devant-Bruyeres,8714416.0,48.185596,6.7512466,,FR,Europe/Paris,False,False,False
532,Biffontaine,Biffontaine,8714418.0,48.2059398,6.8071811,,FR,Europe/Paris,False,False,False
533,Corcieux—Vanémont,Corcieux-Vanemont,8714419.0,48.1982842,6.8772915,,FR,Europe/Paris,False,False,False
535,Mirecourt,Mirecourt,8714421.0,48.299243,6.129651,5691.0,FR,Europe/Paris,False,True,False
536,Contrexéville,Contrexeville,8714428.0,48.1796129,5.890633,,FR,Europe/Paris,False,False,False
537,Martigny-les-Bains,Martigny-les-Bains,8714429.0,48.1086889,5.8255764,,FR,Europe/Paris,False,False,False
538,Lamarche,Lamarche,8714430.0,48.0901299,5.7604385,,FR,Europe/Paris,False,False,False
539,Rozières-sur-Mouzon,Rozieres-sur-Mouzon,8714431.0,48.1208921,5.7054886,,FR,Europe/Paris,False,False,False
540,Provenchères-sur-Fave,Provencheres-sur-Fave,8714434.0,48.3046291,7.0854904,,FR,Europe/Paris,False,False,False
541,Colroy—Lubine,Colroy-Lubine,8714438.0,48.3145855,7.1317294,,FR,Europe/Paris,False,False,False
542,Pouxeux,Pouxeux,8714442.0,48.1039421,6.5810266,,FR,Europe/Paris,False,False,False
543,Éloyes,Eloyes,8714443.0,48.087067,6.6001593,,FR,Europe/Paris,False,False,False
544,Vecoux,Vecoux,8714446.0,47.980175,6.636951,,FR,Europe/Paris,False,False,False
545,St-Léonard,St-Leonard,8714447.0,48.2170818,6.9415509,,FR,Europe/Paris,False,False,False
546,Rupt-sur-Moselle,Rupt-sur-Moselle,8714451.0,47.933333,6.666667,,FR,Europe/Paris,False,False,False
547,Ferdrupt,Ferdrupt,8714452.0,47.9,6.716667,,FR,Europe/Paris,False,False,False
548,Ramonchamp,Ramonchamp,8714453.0,47.9,6.75,,FR,Europe/Paris,False,False,False
549,Le Thillot,Le Thillot,8714454.0,47.883333,6.766667,,FR,Europe/Paris,False,False,False
550,Fresse,Fresse,8714455.0,47.866667,6.783333,,FR,Europe/Paris,False,False,False
551,St-Maurice-sur-Moselle,St-Maurice-sur-Moselle,8714456.0,47.866667,6.833333,,FR,Europe/Paris,False,False,False
552,Bussang,Bussang,8714458.0,47.883333,6.85,10700.0,FR,Europe/Paris,False,False,False
553,Raon-l’Étape,Raon-l'Etape,8714462.0,48.404002,6.837302,,FR,Europe/Paris,False,False,False
554,Vagney,Vagney,8714463.0,48.005974,6.710573,,FR,Europe/Paris,False,False,False
555,Étival-Clairefontaine,Etival-Clairefontaine,8714464.0,48.3671987,6.8769607,,FR,Europe/Paris,False,False,False
556,Zainvillers,Zainvillers,8714465.0,47.996347,6.713764,,FR,Europe/Paris,False,False,False
557,Thiéfosse,Thiefosse,8714466.0,47.969892,6.73061,,FR,Europe/Paris,False,False,False
558,Saulxures-sur-Moselotte,Saulxures-sur-Moselotte,8714467.0,47.95,6.766667,,FR,Europe/Paris,False,False,False
559,St-Michel-sur-Meurthe,St-Michel-sur-Meurthe,8714468.0,48.3269843,6.8882777,,FR,Europe/Paris,False,False,False
560,Cornimont,Cornimont,8714469.0,47.966667,6.833333,,FR,Europe/Paris,False,False,False
561,Deinvillers,Deinvillers,8714470.0,48.416667,6.55,,FR,Europe/Paris,False,False,False
563,Rambervillers,Rambervillers,8714472.0,48.35,6.633333,,FR,Europe/Paris,False,False,False
564,Jeanmenil,Jeanmenil,8714473.0,48.333333,6.683333,,FR,Europe/Paris,False,False,False
566,Autrey,Autrey,8714475.0,48.3,6.683333,,FR,Europe/Paris,False,False,False
567,Dompaire,Dompaire,8714477.0,48.216667,6.216667,,FR,Europe/Paris,False,False,False
568,Brouvelieures,Brouvelieures,8714478.0,48.233333,6.733333,,FR,Europe/Paris,False,False,False
572,Bocquegney,Bocquegney,8714601.0,48.216667,6.3,,FR,Europe/Paris,False,False,False
574,Racecourt,Racecourt,8714603.0,48.25,6.183333,,FR,Europe/Paris,False,False,False
575,Vélotte-et-Tatignecourt,Velotte-et-Tatignecourt,8714604.0,48.261475,6.164487,,FR,Europe/Paris,False,False,False
579,Bagnoles-de-l’Orne Office de Tourisme,Bagnoles-de-l'Orne Office de Tourisme,8735248.0,48.55437,-0.410609,654.0,FR,Europe/Paris,False,True,False
580,St-Nabord,St-Nabord,8714621.0,48.0461722,6.5818945,,FR,Europe/Paris,False,False,False
581,Hielle—Rupt,Hielle-Rupt,8714622.0,47.968714,6.635522,,FR,Europe/Paris,False,False,False
582,Maxonchamp,Maxonchamp,8714623.0,47.945783,6.63269,,FR,Europe/Paris,False,False,False
583,Dommartin,Dommartin,8714624.0,48.0,6.65,,FR,Europe/Paris,False,False,False
584,Ste-Marguerite—Remomeix,Ste-Marguerite-Remomeix,8714627.0,48.260342,6.980995,,FR,Europe/Paris,False,False,False
585,Blanchifontaine,Blanchifontaine,8714629.0,48.339142,6.656682,,FR,Europe/Paris,False,False,False
586,Frémifontaine,Fremifontaine,8714630.0,48.266667,6.683333,,FR,Europe/Paris,False,False,False
587,La Bresse,La Bresse,8714633.0,48.0,6.883333,,FR,Europe/Paris,False,False,False
588,Laneuveville-aux-Bois,Laneuveville-aux-Bois,8714801.0,48.616667,6.65,,FR,Europe/Paris,False,False,False
589,Vallois,Vallois,8714802.0,48.468442,6.564112,,FR,Europe/Paris,False,False,False
591,Greux,Greux,8714808.0,48.45,5.683333,,FR,Europe/Paris,False,False,False
592,Goussaincourt,Goussaincourt,8714809.0,48.48384912581334,5.693310499191284,,FR,Europe/Paris,False,False,False
593,Burey-la-Côte,Burey-la-Cote,8714810.0,48.5,5.7,,FR,Europe/Paris,False,False,False
595,Taillancourt,Taillancourt,8714812.0,,,,FR,Europe/Paris,False,False,False
598,Montbré,Montbre,8717125.0,49.1942075,4.0388482,,FR,Europe/Paris,False,False,False
599,Trois-Puits,Trois-Puits,8717126.0,49.2067481,4.0384678,,FR,Europe/Paris,False,False,False
600,Muizon,Muizon,8717129.0,49.2781012,3.8915287,,FR,Europe/Paris,False,False,False
601,Jonchery-sur-Vesle,Jonchery-sur-Vesle,8717131.0,49.290057,3.819422,,FR,Europe/Paris,False,False,False
602,Breuil-Romain,Breuil-Romain,8717132.0,49.3084141,3.7665322,,FR,Europe/Paris,False,False,False
603,Fismes,Fismes,8717133.0,49.310665,3.68213,,FR,Europe/Paris,False,False,False
604,Bazoches,Bazoches,8717134.0,49.30518,3.6163588,,FR,Europe/Paris,False,False,False
605,Mont-Notre-Dame,Mont-Notre-Dame,8717135.0,49.2967797,3.5764545,,FR,Europe/Paris,False,False,False
606,Fère-en-Tardenois,Fere-en-Tardenois,8717137.0,49.2085631,3.5042685,,FR,Europe/Paris,False,False,False
607,Dormans,Dormans,8717151.0,49.0791611,3.641709,,FR,Europe/Paris,False,False,False
608,Aÿ,Ay,8717156.0,49.0487318,4.0015644,,FR,Europe/Paris,False,False,False
609,Avenay,Avenay,8717157.0,49.0647826,4.043689,,FR,Europe/Paris,False,False,False
610,Germaine,Germaine,8717158.0,49.1277634,4.0228976,,FR,Europe/Paris,False,False,False
611,Rilly-la-Montagne,Rilly-la-Montagne,8717159.0,49.1664524,4.0408608,,FR,Europe/Paris,False,False,False
612,Val-de-Vesle,Val-de-Vesle,8717161.0,49.17792,4.22221,,FR,Europe/Paris,False,False,False
613,Prunay,Prunay,8717162.0,49.1988,4.18364,,FR,Europe/Paris,False,False,False
614,Sillery,Sillery,8717163.0,49.20324,4.14427,,FR,Europe/Paris,False,False,False
615,Sept-Saulx,Sept-Saulx,8717164.0,49.1511332,4.2569742,,FR,Europe/Paris,False,False,False
616,Mairy-sur-Marne,Mairy-sur-Marne,8717168.0,48.866667,4.416667,,FR,Europe/Paris,False,False,False
617,Courcy-Brimont,Courcy-Brimont,8717171.0,49.3296003,4.0134623,,FR,Europe/Paris,False,False,False
618,Loivre,Loivre,8717172.0,49.3466786,3.9906699,,FR,Europe/Paris,False,False,False
619,Guignicourt,Guignicourt,8717173.0,49.434862,3.961334,,FR,Europe/Paris,False,False,False
620,Amifontaine,Amifontaine,8717174.0,49.4847322,3.9105811,,FR,Europe/Paris,False,False,False
621,St-Erme,St-Erme,8717175.0,49.5269865,3.8576502,,FR,Europe/Paris,False,False,False
622,Coucy-lès-Eppes,Coucy-les-Eppes,8717176.0,49.556282,3.7748209,,FR,Europe/Paris,False,False,False
623,Nouzonville,Nouzonville,8717202.0,49.8120125,4.7428155,,FR,Europe/Paris,False,False,False
624,Joigny-sur-Meuse,Joigny-sur-Meuse,8717203.0,49.8336807,4.7672389,,FR,Europe/Paris,False,False,False
625,Bogny-sur-Meuse,Bogny-sur-Meuse,8717204.0,49.8583117,4.7632317,,FR,Europe/Paris,False,False,False
626,Monthermé,Montherme,8717205.0,49.865621,4.74053,,FR,Europe/Paris,False,False,False
627,Deville,Deville,8717206.0,49.8796028,4.7072062,,FR,Europe/Paris,False,False,False
628,Laifour,Laifour,8717207.0,49.911256,4.6923484,,FR,Europe/Paris,False,False,False
629,Revin,Revin,8717208.0,49.938756,4.642536,,FR,Europe/Paris,False,False,False
630,Fumay,Fumay,8717209.0,49.986048,4.6926,,FR,Europe/Paris,False,False,False
631,Haybes,Haybes,8717210.0,50.0116888,4.7045378,,FR,Europe/Paris,False,False,False
632,Vireux-Molhain,Vireux-Molhain,8717211.0,50.0827968,4.7233909,,FR,Europe/Paris,False,False,False
633,Aubrives,Aubrives,8717212.0,50.1044507,4.7616512,,FR,Europe/Paris,False,False,False
634,Givet,Givet,8717213.0,50.14025067,4.81798595,,FR,Europe/Paris,False,False,False
635,Lumes,Lumes,8717218.0,49.7327973,4.7833571,,FR,Europe/Paris,False,False,False
636,Nouvion-sur-Meuse,Nouvion-sur-Meuse,8717221.0,49.6973135,4.794973,,FR,Europe/Paris,False,False,False
637,Vrigne-Meuse,Vrigne-Meuse,8717222.0,49.7010822,4.8438063,,FR,Europe/Paris,False,False,False
638,Donchery,Donchery,8717223.0,49.6981267,4.8747529,,FR,Europe/Paris,False,False,False
639,Amagne—Lucquy,Amagne-Lucquy,8717226.0,49.5238187,4.4738775,,FR,Europe/Paris,False,False,False
640,Rethel,Rethel,8717227.0,49.504393,4.369566,,FR,Europe/Paris,False,False,False
641,Pont-Maugis,Pont-Maugis,8717230.0,49.666667,4.95,,FR,Europe/Paris,False,False,False
642,Bazeilles,Bazeilles,8717231.0,49.666667,4.983333,,FR,Europe/Paris,False,False,False
643,Douzy,Douzy,8717232.0,49.666667,5.05,,FR,Europe/Paris,False,False,False
644,Pouru-St-Rémy,Pouru-St-Remy,8717233.0,49.683333,5.083333,,FR,Europe/Paris,False,False,False
645,Sachy,Sachy,8717234.0,49.666667,5.133333,,FR,Europe/Paris,False,False,False
646,Carignan,Carignan,8717235.0,49.6285736,5.1684754,5076.0,FR,Europe/Paris,False,True,False
647,Blagny,Blagny,8717238.0,49.616667,5.183333,,FR,Europe/Paris,False,False,False
648,Linay,Linay,8717239.0,49.616667,5.216667,,FR,Europe/Paris,False,False,False
649,Margut Fromy,Margut Fromy,8717241.0,49.590323,5.254995,4789.0,FR,Europe/Paris,False,True,False
650,Liart,Liart,8717254.0,49.7700597,4.3355138,,FR,Europe/Paris,False,False,False
651,Beauchastel,Beauchastel,8776152.0,44.833333,4.8,,FR,Europe/Paris,False,False,False
652,Remilly-Aillicourt,Remilly-Aillicourt,8717270.0,49.6518,4.993642,,FR,Europe/Paris,False,False,False
653,Bénestroff,Benestroff,8719230.0,48.90656,6.75266,,FR,Europe/Paris,False,False,False
654,Bagnoles-de-l’Orne,Bagnoles-de-l'Orne,,,,,FR,Europe/Paris,True,False,False
656,Anchamps,Anchamps,8717285.0,49.9307448,4.6702434,,FR,Europe/Paris,False,False,False
657,Fépin,Fepin,8717287.0,50.0234644,4.7266156,,FR,Europe/Paris,False,False,False
659,Brest,Brest,8747400.0,48.38811,-4.478903,,FR,Europe/Paris,False,False,False
660,Wadelincourt,Wadelincourt,8717330.0,49.682651,4.937918,,FR,Europe/Paris,False,False,False
661,La Ferté-sur-Chiers,La Ferte-sur-Chiers,8717340.0,49.566667,5.233333,,FR,Europe/Paris,False,False,False
664,Songy,Songy,8717424.0,48.801708,4.495397,,FR,Europe/Paris,False,False,False
665,Loisy-sur-Marne,Loisy-sur-Marne,8717425.0,48.766667,4.55,,FR,Europe/Paris,False,False,False
666,Pringy (Marne),Pringy (Marne),8717426.0,48.783333,4.516667,,FR,Europe/Paris,False,False,False
667,Vitry-le-François,Vitry-le-Francois,8717427.0,48.718142,4.587581,5655.0,FR,Europe/Paris,False,True,False
668,Mourmelon-le-Petit,Mourmelon-le-Petit,8717440.0,49.1313076,4.3180982,,FR,Europe/Paris,False,False,False
669,Uxegney,Uxegney,8717442.0,48.193876,6.370727,,FR,Europe/Paris,False,False,False
670,Bouy,Bouy,8717443.0,49.09131,4.35292,,FR,Europe/Paris,False,False,False
671,Darnieulles,Darnieulles,8717445.0,48.2,6.35,,FR,Europe/Paris,False,False,False
672,Mattaincourt,Mattaincourt,8717448.0,48.283333,6.133333,,FR,Europe/Paris,False,False,False
673,St-Âme,St-Ame,8717449.0,48.033333,6.666667,,FR,Europe/Paris,False,False,False
674,St-Âme—Le Syndicat,St-Ame-Le Syndicat,8717450.0,48.024474,6.686994,,FR,Europe/Paris,False,False,False
677,Suippes,Suippes,8717482.0,49.120151,4.543885,,FR,Europe/Paris,False,False,False
678,Ste-Ménéhould,Ste-Menehould,8717487.0,49.1,4.866667,,FR,Europe/Paris,False,False,False
679,St-Dizier,St-Dizier,8717500.0,48.642404,4.947855,5167.0,FR,Europe/Paris,False,True,False
680,Revigny,Revigny,8717501.0,48.8240449,4.9855736,,FR,Europe/Paris,False,False,False
681,Nançois-Tronville,Nancois-Tronville,8717506.0,48.7180423,5.2912016,,FR,Europe/Paris,False,False,False
682,Fronville,Fronville,8717507.0,48.4001829,5.1564405,4868.0,FR,Europe/Paris,False,True,False
683,Joinville,Joinville,8717509.0,48.4442977,5.143503,,FR,Europe/Paris,False,False,False
685,Curel,Curel,8717510.0,48.5,5.133333,,FR,Europe/Paris,False,False,False
686,Chevillon,Chevillon,8717511.0,48.5245505,5.1117843,,FR,Europe/Paris,False,False,False
687,Bayard,Bayard,8717513.0,48.5520296,5.0754439,,FR,Europe/Paris,False,False,False
688,Eurville,Eurville,8717514.0,48.5828713,5.0449583,5606.0,FR,Europe/Paris,False,True,False
690,Villiers-en-Lieu,Villiers-en-Lieu,8717520.0,48.661135,4.896801,,FR,Europe/Paris,False,False,False
691,St-Eulien,St-Eulien,8717521.0,48.683333,4.883333,,FR,Europe/Paris,False,False,False
692,Commercy,Commercy,8717525.0,48.765749,5.58861,,FR,Europe/Paris,False,False,False
693,Berthelming,Berthelming,8721533.0,48.8096475,7.0087859,,FR,Europe/Paris,False,False,False
694,Bouin,Bouin,8732072.0,46.966667,-2.0,,FR,Europe/Paris,False,False,False
695,Les Islettes,Les Islettes,8717571.0,49.10635,5.00184,,FR,Europe/Paris,False,False,False
696,Clermont-en-Argonne,Clermont-en-Argonne,8717573.0,49.10645,5.06506,,FR,Europe/Paris,False,False,False
697,Étain,Etain,8717579.0,49.2074907,5.6398079,,FR,Europe/Paris,False,False,False
701,Vaucouleurs,Vaucouleurs,8717585.0,,,17374.0,FR,Europe/Paris,False,False,False
702,Neuville-les-Vaucouleurs,Neuville-les-Vaucouleurs,8717586.0,48.583333,5.666667,,FR,Europe/Paris,False,False,False
703,Burey-en-Vaux,Burey-en-Vaux,8717587.0,48.566667,5.666667,,FR,Europe/Paris,False,False,False
704,Maxey-sur-Vaise,Maxey-sur-Vaise,8717588.0,48.533333,5.666667,,FR,Europe/Paris,False,False,False
705,Hasenrain,Hasenrain,8718102.0,47.736281,7.3313559,,FR,Europe/Paris,False,False,False
706,Brunstatt,Brunstatt,8718103.0,47.716667,7.316667,,FR,Europe/Paris,False,False,False
707,Flaxlanden,Flaxlanden,8718104.0,47.6986924,7.3044703,,FR,Europe/Paris,False,False,False
708,Beillant,Beillant,8749107.0,45.7007999,-0.5265079,,FR,Europe/Paris,False,False,False
709,Blesme-Haussignemont,Blesme-Haussignemont,8717432.0,48.72125652410445,4.752992391586304,10693.0,FR,Europe/Paris,False,False,False
710,Tagolsheim,Tagolsheim,8718105.0,47.6549682,7.2641437,,FR,Europe/Paris,False,False,False
711,Walheim,Walheim,8718106.0,47.6416406,7.2633202,,FR,Europe/Paris,False,False,False
712,Ballersdorf,Ballersdorf,8718107.0,47.633333,7.166667,,FR,Europe/Paris,False,False,False
713,Biarritz,Biarritz,8767340.0,43.459397,-1.545915,,FR,Europe/Paris,False,False,False
714,Valdieu,Valdieu,8718108.0,47.631315550149495,7.056044340133667,,FR,Europe/Paris,False,False,False
715,Graffenwald,Graffenwald,8718113.0,47.7808232,7.2247908,,FR,Europe/Paris,False,False,False
716,St-André (Haut Rhin),St-Andre (Haut Rhin),8718114.0,47.79097,7.155053,,FR,Europe/Paris,False,False,False
717,Colmar Mésanges,Colmar Mesanges,8740229.0,48.0860048,7.3336703,1349.0,FR,Europe/Paris,False,False,False
718,Colmar St-Joseph,Colmar St-Joseph,8718122.0,48.0816399,7.3453397,1349.0,FR,Europe/Paris,False,False,False
719,St-Gilles,St-Gilles,8718155.0,48.0758611,7.2609746,,FR,Europe/Paris,False,False,False
723,Mulhouse—Dornach,Mulhouse-Dornach,8718205.0,47.74713,7.308477,4753.0,FR,Europe/Paris,False,False,False
724,Rixheim,Rixheim,8718207.0,47.74896,7.406404,,FR,Europe/Paris,False,False,False
725,Habsheim,Habsheim,8718208.0,47.737691,7.417979,,FR,Europe/Paris,False,False,False
726,Sierentz,Sierentz,8718210.0,47.656047,7.459142,,FR,Europe/Paris,False,False,False
727,Bartenheim,Bartenheim,8718211.0,47.6349313,7.4872561,,FR,Europe/Paris,False,False,False
728,Zillisheim,Zillisheim,8718219.0,47.6943143,7.2945376,,FR,Europe/Paris,False,False,False
729,Illfurth,Illfurth,8718220.0,47.6764322,7.2685712,,FR,Europe/Paris,False,False,False
730,Altkirch,Altkirch,8718223.0,47.6270174,7.2392493,,FR,Europe/Paris,False,False,False
731,Dannemarie,Dannemarie,8718225.0,47.6275771,7.124907,,FR,Europe/Paris,False,False,False
732,Ribeauvillé,Ribeauville,8718227.0,48.19759,7.22158,,FR,Europe/Paris,False,False,False
735,Herrlisheim-près-Colmar,Herrlisheim-pres-Colmar,8718232.0,48.0166417,7.3206381,,FR,Europe/Paris,False,False,False
736,Rouffach,Rouffach,8718233.0,47.9602481,7.312455,,FR,Europe/Paris,False,False,False
737,Logelbach,Logelbach,8718234.0,48.087299,7.3206082,,FR,Europe/Paris,False,False,False
738,Turckheim,Turckheim,8718235.0,48.0856288,7.279466,,FR,Europe/Paris,False,False,False
739,Walbach,Walbach,8718236.0,48.0580062,7.2334758,,FR,Europe/Paris,False,False,False
740,Wihr-au-Val—Soultzbach,Wihr-au-Val-Soultzbach,8718237.0,48.0460522,7.2095351,,FR,Europe/Paris,False,False,False
741,Gunsbach—Griesbach,Gunsbach-Griesbach,8718238.0,48.0414908,7.1748407,,FR,Europe/Paris,False,False,False
742,Ranspach,Ranspach,8718240.0,47.8815954,7.0123184,,FR,Europe/Paris,False,False,False
743,Cernay,Cernay,8718241.0,47.802,7.1737,,FR,Europe/Paris,False,False,False
744,Burnhaupt,Burnhaupt,8718244.0,47.733333,7.15,,FR,Europe/Paris,False,False,False
745,Guewenheim,Guewenheim,8718245.0,47.752828,7.092533,,FR,Europe/Paris,False,False,False
746,Sentheim,Sentheim,8718246.0,47.75252549026408,7.057535648345947,,FR,Europe/Paris,False,False,False
747,Lauw,Lauw,8718247.0,47.756291,7.018375,,FR,Europe/Paris,False,False,False
748,Masevaux,Masevaux,8718248.0,47.776713,6.996832,,FR,Europe/Paris,False,False,False
749,Sickert,Sickert,8718249.0,47.783808,6.978464,,FR,Europe/Paris,False,False,False
750,Niederbruck,Niederbruck,8718250.0,47.783333,6.966667,,FR,Europe/Paris,False,False,False
751,Kirchberg,Kirchberg,8718251.0,47.797532,6.957951,,FR,Europe/Paris,False,False,False
752,Oberbruck,Oberbruck,8718252.0,47.807678,6.943531,,FR,Europe/Paris,False,False,False
753,Sewen,Sewen,8718253.0,47.80716,6.90568,,FR,Europe/Paris,False,False,False
754,Luttenbach-près-Munster,Luttenbach-pres-Munster,8718254.0,48.0352559,7.1186307,,FR,Europe/Paris,False,False,False
755,Vieux-Thann,Vieux-Thann,8718255.0,47.8058505,7.1194904,162.0,FR,Europe/Paris,False,False,False
756,Bitschwiller,Bitschwiller,8718257.0,47.8273719,7.078514,,FR,Europe/Paris,False,False,False
757,Willer-sur-Thur,Willer-sur-Thur,8718258.0,47.8425494,7.0693196,,FR,Europe/Paris,False,False,False
758,Moosch,Moosch,8718259.0,47.8607454,7.0507631,,FR,Europe/Paris,False,False,False
759,St-Amarin,St-Amarin,8718260.0,47.8728596,7.0287447,,FR,Europe/Paris,False,False,False
760,Wesserling,Wesserling,8718261.0,47.8899651,6.997519,,FR,Europe/Paris,False,False,False
761,Fellering,Fellering,8718262.0,47.8975893,6.9871347,,FR,Europe/Paris,False,False,False
762,Oderen,Oderen,8718263.0,47.9118756,6.9734829,,FR,Europe/Paris,False,False,False
763,Kruth,Kruth,8718264.0,47.92396,6.9690938,,FR,Europe/Paris,False,False,False
764,Breitenbach,Breitenbach,8718265.0,48.0285326,7.1040522,,FR,Europe/Paris,False,False,False
765,Richwiller,Richwiller,8718267.0,47.783333,7.283333,,FR,Europe/Paris,False,False,False
766,Wittelsheim,Wittelsheim,8718268.0,47.81733322335348,7.2643232345581055,,FR,Europe/Paris,False,False,False
767,Staffelfelden,Staffelfelden,8718269.0,47.8279612,7.2651657,,FR,Europe/Paris,False,False,False
768,Bollwiller,Bollwiller,8718270.0,47.8569694,7.2672555,,FR,Europe/Paris,False,False,False
769,Raedersheim,Raedersheim,8718271.0,47.8869059,7.2840467,,FR,Europe/Paris,False,False,False
770,Merxheim,Merxheim,8718272.0,47.9126413,7.3022795,,FR,Europe/Paris,False,False,False
771,Muhlbach-sur-Munster,Muhlbach-sur-Munster,8718273.0,48.0246077,7.0875666,,FR,Europe/Paris,False,False,False
772,Malmerspach,Malmerspach,8718278.0,47.866667,7.033333,,FR,Europe/Paris,False,False,False
773,Metzéral,Metzeral,8718281.0,48.0133301,7.0733383,,FR,Europe/Paris,False,False,False
774,Sundhoffen,Sundhoffen,,,,,FR,Europe/Paris,False,False,False
775,Bas-Evette,Bas-Evette,8718420.0,47.6810089,6.8068494,,FR,Europe/Paris,False,False,False
778,Bort-les-Orgues,Bort-les-Orgues,8764570.0,45.40645751045886,2.502157688140869,,FR,Europe/Paris,False,False,False
779,Trois-Chênes,Trois-Chenes,8718424.0,47.6480822,6.8462281,,FR,Europe/Paris,False,False,False
780,Chèvremont,Chevremont,8718425.0,47.6216292,6.9214733,,FR,Europe/Paris,False,False,False
781,Petit-Croix,Petit-Croix,8718426.0,47.6101045,6.9947414,,FR,Europe/Paris,False,False,False
782,Montreux-Vieux,Montreux-Vieux,8718427.0,47.6178576,7.0253947,,FR,Europe/Paris,False,False,False
783,Blainville—Damelevières,Blainville-Damelevieres,8714113.0,48.564971,6.386953,,FR,Europe/Paris,False,False,False
784,Héricourt,Hericourt,8718450.0,47.5729701,6.7691977,,FR,Europe/Paris,False,False,False
785,Voujeaucourt,Voujeaucourt,8718453.0,47.4789729,6.7699667,,FR,Europe/Paris,False,False,False
786,Bourg-Madame,Bourg-Madame,8778487.0,42.4324069,1.9486704,,FR,Europe/Paris,False,False,False
787,Colombier-Fontaine,Colombier-Fontaine,8718455.0,47.4554849,6.6890071,,FR,Europe/Paris,False,False,False
789,L’Isle-sur-le-Doubs,L'Isle-sur-le-Doubs,8718457.0,47.4473777,6.5812614,,FR,Europe/Paris,False,False,False
792,Clerval,Clerval,8718462.0,47.3966577,6.4920574,,FR,Europe/Paris,False,False,False
793,Port-sur-Saône,Port-sur-Saone,8718512.0,47.683333,6.05,,FR,Europe/Paris,False,False,False
795,Grattery,Grattery,8718515.0,47.666667,6.083333,,FR,Europe/Paris,False,False,False
796,Noidans-lès-Vesoul,Noidans-les-Vesoul,8718517.0,47.616667,6.133333,,FR,Europe/Paris,False,False,False
800,Montureux-lès-Baulay,Montureux-les-Baulay,8718528.0,47.816667,5.983333,,FR,Europe/Paris,False,False,False
801,Ronchamp,Ronchamp,8718531.0,47.6990308,6.6232791,,FR,Europe/Paris,False,False,False
802,Champagney,Champagney,8718534.0,47.7031399,6.7012773,,FR,Europe/Paris,False,False,False
803,Jussey,Jussey,8718535.0,47.816667,5.9,4568.0,FR,Europe/Paris,False,True,False
804,Masseret Ville,Masseret Ville,8745004.0,45.533333,1.516667,4798.0,FR,Europe/Paris,False,False,False
805,Barberey Route de Méry,Barberey Route de Mery,8713953.0,48.35,4.016667,5072.0,FR,Europe/Paris,False,True,False
807,Béning,Bening,8719325.0,49.1379541,6.8282982,,FR,Europe/Paris,False,False,False
809,Mont-le-Vernois,Mont-le-Vernois,8718540.0,47.6,6.066667,,FR,Europe/Paris,False,False,False
810,Luxeuil-les-Bains,Luxeuil-les-Bains,8718559.0,47.8148606,6.3726593,,FR,Europe/Paris,False,False,False
811,Basel SBB,Basel SBB,8718791.0,,,5877.0,CH,Europe/Zurich,False,False,False
812,Loupershouse,Loupershouse,8719080.0,49.081102,6.914979,,FR,Europe/Paris,False,False,False
813,Walygator Parc,Walygator Parc,8719109.0,49.22492,6.15946,,FR,Europe/Paris,False,False,False
814,Maizières-lès-Metz,Maizieres-les-Metz,8719110.0,49.2155349,6.1588762,,FR,Europe/Paris,False,False,False
815,Uckange,Uckange,8719113.0,49.3032605,6.1567735,,FR,Europe/Paris,False,False,False
816,Knutange—Nilvange,Knutange-Nilvange,8719121.0,49.340801,6.047762,,FR,Europe/Paris,False,False,False
817,Hayange,Hayange,8719123.0,49.33053,6.07245,,FR,Europe/Paris,False,False,False
818,Aubusson Gare Routière,Aubusson Gare Routiere,8741778.0,45.95500608979646,2.1708834171295166,5604.0,FR,Europe/Paris,False,False,False
819,Metzeresche,Metzeresche,8719129.0,49.3,6.316667,,FR,Europe/Paris,False,False,False
820,Yutz,Yutz,8719130.0,49.361354,6.2093949,,FR,Europe/Paris,False,False,False
821,Kuntzig,Kuntzig,8719131.0,49.349918,6.2345596,9049.0,FR,Europe/Paris,False,True,False
822,Distroff,Distroff,8719132.0,49.3352322,6.2603013,,FR,Europe/Paris,False,False,False
823,Metzervisse,Metzervisse,8719133.0,49.3179579,6.2838554,,FR,Europe/Paris,False,False,False
824,Kédange,Kedange,8719134.0,49.3056643,6.3324034,9047.0,FR,Europe/Paris,False,False,False
825,Hombourg-Budange,Hombourg-Budange,8719135.0,49.2823957,6.3507488,3641.0,FR,Europe/Paris,False,True,False
827,Bordeaux,Bordeaux,,44.83773065393117,-0.577431321144104,,FR,Europe/Paris,True,False,False
828,Bordeaux St-Jean,Bordeaux St-Jean,8758100.0,44.825873,-0.556697,827.0,FR,Europe/Paris,False,True,False
829,Boé,Boe,8758234.0,44.166667,0.633333,,FR,Europe/Paris,False,False,False
830,Ébersviller,Ebersviller,8719137.0,49.2747715,6.4111622,9046.0,FR,Europe/Paris,False,False,False
831,Anzeling,Anzeling,8719138.0,49.2620718,6.4602649,,FR,Europe/Paris,False,False,False
832,Freistroff,Freistroff,8719139.0,49.2780593,6.4926709,,FR,Europe/Paris,False,False,False
833,Remelfang,Remelfang,8719141.0,49.266667,6.516667,,FR,Europe/Paris,False,False,False
834,Basse-Ham,Basse-Ham,8719160.0,49.3805708,6.2348709,,FR,Europe/Paris,False,False,False
835,Koenigsmacker,Koenigsmacker,8719161.0,49.3965538,6.2735503,,FR,Europe/Paris,False,False,False
836,Malling,Malling,8719162.0,49.42152,6.302207,,FR,Europe/Paris,False,False,False
837,Sierck-les-Bains,Sierck-les-Bains,8719163.0,49.4440155,6.3500946,,FR,Europe/Paris,False,False,False
838,Apach,Apach,8719164.0,49.4439732,6.3500923,4960.0,FR,Europe/Paris,False,True,False
839,Homécourt,Homecourt,8719169.0,49.2182988,5.9991714,,FR,Europe/Paris,False,False,False
840,Belfort-Ville,Belfort-Ville,8718400.0,47.633284,6.853956,10610.0,FR,Europe/Paris,False,False,False
841,Jœuf,Joeuf,8719170.0,49.2250083,6.0177021,,FR,Europe/Paris,False,False,False
842,Moyeuvre-Grande,Moyeuvre-Grande,8719171.0,49.246713,6.043226,,FR,Europe/Paris,False,False,False
843,Bourges,Bourges,8757620.0,47.094145,2.394255,10690.0,FR,Europe/Paris,True,False,False
844,Boves,Boves,8731321.0,49.8462355,2.3981165,,FR,Europe/Paris,False,False,False
845,Rombas—Clouange,Rombas-Clouange,8719173.0,49.2560553,6.0990538,,FR,Europe/Paris,False,False,False
846,Gandrange—Amnéville,Gandrange-Amneville,8719174.0,49.2608222,6.1358897,,FR,Europe/Paris,False,False,False
849,Woippy,Woippy,8719208.0,49.1487965,6.155621,,FR,Europe/Paris,False,False,False
851,Vatimont,Vatimont,8719211.0,48.979731,6.467163,,FR,Europe/Paris,False,False,False
852,Lucy,Lucy,8719212.0,48.95,6.466667,,FR,Europe/Paris,False,False,False
853,Chenois,Chenois,8719213.0,48.966667,6.5,,FR,Europe/Paris,False,False,False
854,Holacourt,Holacourt,8719214.0,48.966667,6.516667,,FR,Europe/Paris,False,False,False
855,Arraincourt,Arraincourt,8719215.0,48.966667,6.533333,,FR,Europe/Paris,False,False,False
856,Racrange,Racrange,8719217.0,48.916667,6.666667,,FR,Europe/Paris,False,False,False
857,Bermering,Bermering,8719218.0,48.933333,6.7,,FR,Europe/Paris,False,False,False
858,Marimont-lès-Bénestroff,Marimont-les-Benestroff,8719219.0,48.889891,6.785431,,FR,Europe/Paris,False,False,False
859,Peltre,Peltre,8719220.0,49.073877,6.2220476,,FR,Europe/Paris,False,False,False
860,Courcelles-sur-Nied,Courcelles-sur-Nied,8719221.0,49.0634035,6.3109926,,FR,Europe/Paris,False,False,False
861,Sanry-sur-Nied,Sanry-sur-Nied,8719222.0,49.0445991,6.3399775,,FR,Europe/Paris,False,False,False
862,Baudrecourt,Baudrecourt,8719224.0,48.966667,6.45,,FR,Europe/Paris,False,False,False
863,Lesse,Lesse,8719225.0,48.966667,6.516667,,FR,Europe/Paris,False,False,False
864,Brulange,Brulange,8719226.0,48.969861,6.549693,,FR,Europe/Paris,False,False,False
865,Morhange,Morhange,8719228.0,48.9366239,6.6590266,9222.0,FR,Europe/Paris,False,True,False
866,Ars-sur-Moselle,Ars-sur-Moselle,8719240.0,49.0744745,6.0776461,,FR,Europe/Paris,False,False,False
867,Ancy-sur-Moselle,Ancy-sur-Moselle,8719241.0,49.0575093,6.0627661,,FR,Europe/Paris,False,False,False
868,Pagny-sur-Moselle,Pagny-sur-Moselle,8719246.0,48.9852003,6.0250346,,FR,Europe/Paris,False,False,False
869,Vandières,Vandieres,8719247.0,48.9521683,6.0392275,,FR,Europe/Paris,False,False,False
870,Baroncourt,Baroncourt,8719265.0,49.2845332,5.6997387,,FR,Europe/Paris,False,False,False
871,Hatrize,Hatrize,8719272.0,49.1934741,5.9071141,,FR,Europe/Paris,False,False,False
872,Valleroy—Moineville,Valleroy-Moineville,8719273.0,49.2056957,5.9360165,,FR,Europe/Paris,False,False,False
873,Bourges Gare Routière,Bourges Gare Routiere,8745424.0,47.083333,2.4,10690.0,FR,Europe/Paris,False,False,False
874,Baronville,Baronville,8719311.0,48.933333,6.6,,FR,Europe/Paris,False,False,False
875,Vahl-les-Bénestroff,Vahl-les-Benestroff,8719312.0,48.913148,6.785372,,FR,Europe/Paris,False,False,False
876,Hargarten—Falck,Hargarten-Falck,8719314.0,49.221756,6.63687,,FR,Europe/Paris,False,False,False
877,Teterchen,Teterchen,8719315.0,49.232534,6.560606,,FR,Europe/Paris,False,False,False
878,Brettnach,Brettnach,8719316.0,49.25,6.566667,,FR,Europe/Paris,False,False,False
879,Bouzonville,Bouzonville,8719317.0,49.2899739,6.5293736,9042.0,FR,Europe/Paris,False,True,False
880,Hombourg-Budange Haut,Hombourg-Budange Haut,8719327.0,49.1261085,6.7742703,3641.0,FR,Europe/Paris,False,False,False
881,St-Avold,St-Avold,8719331.0,49.085873,6.7206141,,FR,Europe/Paris,False,False,False
882,Teting,Teting,8719334.0,49.051605,6.6646267,,FR,Europe/Paris,False,False,False
883,Faulquemont,Faulquemont,8719335.0,49.0453391,6.6039774,,FR,Europe/Paris,False,False,False
884,Herny,Herny,8719338.0,49.0036084,6.4769285,,FR,Europe/Paris,False,False,False
887,Breil-sur-Roya,Breil-sur-Roya,8775683.0,43.944039,7.5163276,,FR,Europe/Paris,False,False,False
888,Bressuire,Bressuire,8748724.0,46.8384462,-0.4963269,,FR,Europe/Paris,False,False,False
890,Theding,Theding,8719350.0,49.126686,6.895238,,FR,Europe/Paris,False,False,False
891,Farébersviller,Farebersviller,8719351.0,49.1181603,6.8618926,9130.0,FR,Europe/Paris,False,True,False
892,Farschviller,Farschviller,8719352.0,49.0878773,6.9080815,9131.0,FR,Europe/Paris,False,True,False
893,Diebling,Diebling,8719353.0,49.116667,6.933333,,FR,Europe/Paris,False,False,False
894,Hundling,Hundling,8719354.0,49.1066949,6.9775394,,FR,Europe/Paris,False,False,False
895,Metzing,Metzing,8719355.0,49.1,6.966667,,FR,Europe/Paris,False,False,False
896,Ippling,Ippling,8719356.0,49.1,7.0,,FR,Europe/Paris,False,False,False
898,Welferding,Welferding,8719360.0,49.11216,7.046608,,FR,Europe/Paris,False,False,False
899,Rémelfing,Remelfing,8719362.0,49.091627,7.0915336,,FR,Europe/Paris,False,False,False
900,Sarreinsming,Sarreinsming,8719363.0,49.086306,7.1120387,,FR,Europe/Paris,False,False,False
901,Zetting,Zetting,8719364.0,49.0783736,7.13454,,FR,Europe/Paris,False,False,False
902,Wittring,Wittring,8719365.0,49.0559404,7.1410655,,FR,Europe/Paris,False,False,False
903,Herbitzheim,Herbitzheim,8719367.0,49.0138973,7.0801596,,FR,Europe/Paris,False,False,False
904,Ravezies,Ravezies,8723531.0,44.86645087819083,-0.5769538879394531,,FR,Europe/Paris,False,False,False
905,Boussens,Boussens,8761109.0,43.179617,0.972543,,FR,Europe/Paris,False,False,False
906,Woelfling-lès-Sarreguemines,Woelfling-les-Sarreguemines,8719377.0,49.094747,7.190609,,FR,Europe/Paris,False,False,False
907,Rohrbach-lès-Bitche,Rohrbach-les-Bitche,8719378.0,49.05535,7.26433,9060.0,FR,Europe/Paris,False,True,False
908,Petit-Réderching,Petit-Rederching,8719379.0,49.0493205,7.2997305,,FR,Europe/Paris,False,False,False
909,Busigny,Busigny,8729624.0,50.0397236,3.4461174,,FR,Europe/Paris,False,False,False
910,Enchenberg,Enchenberg,8719380.0,49.01614,7.33372,9062.0,FR,Europe/Paris,False,True,False
911,Lemberg,Lemberg,8719381.0,49.00075,7.37962,,FR,Europe/Paris,False,False,False
912,Bréauté—Beuzeville,Breaute-Beuzeville,8741334.0,49.603396,0.417489,,FR,Europe/Paris,False,False,False
913,Bitche,Bitche,8719382.0,49.04838,7.4321,5273.0,FR,Europe/Paris,False,True,False
914,Bitche Camp,Bitche Camp,8719383.0,49.04875093582687,7.432331442832946,5273.0,FR,Europe/Paris,False,False,False
916,Ebring,Ebring,8719401.0,49.121311,6.914583,,FR,Europe/Paris,False,False,False
917,Montmédy,Montmedy,8719420.0,49.5228775,5.3716718,5697.0,FR,Europe/Paris,False,True,False
918,Charency-Vezin,Charency-Vezin,8719425.0,49.483333,5.516667,,FR,Europe/Paris,False,False,False
919,Audun-le-Roman,Audun-le-Roman,8719435.0,49.36682,5.89139,,FR,Europe/Paris,False,False,False
920,Fontoy,Fontoy,8719436.0,49.35,6.0,,FR,Europe/Paris,False,False,False
921,Réhon,Rehon,8719444.0,49.5,5.75,,FR,Europe/Paris,False,False,False
922,Cons-la-Grandville,Cons-la-Grandville,8719445.0,49.483333,5.7,5699.0,FR,Europe/Paris,False,True,False
923,La Roche-sous-Montigny,La Roche-sous-Montigny,8719448.0,49.474003,5.663258,,FR,Europe/Paris,False,False,False
924,Viviers-sur-Chiers,Viviers-sur-Chiers,8719449.0,49.470344,5.630528,,FR,Europe/Paris,False,False,False
927,Gros-Rederching,Gros-Rederching,8719960.0,49.066667,7.216667,,FR,Europe/Paris,False,False,False
928,Destry,Destry,8719962.0,48.95,6.583333,,FR,Europe/Paris,False,False,False
929,Mundolsheim,Mundolsheim,8721210.0,48.6447732,7.721389,,FR,Europe/Paris,False,False,False
930,Busseau-sur-Creuse,Busseau-sur-Creuse,8759770.0,46.1230257,2.0229244,,FR,Europe/Paris,False,False,False
931,Stephansfeld,Stephansfeld,8721212.0,48.7175872,7.7045946,,FR,Europe/Paris,False,False,False
932,Bueil,Bueil,8738709.0,48.9253816,1.4435896,,FR,Europe/Paris,False,False,False
933,Brumath,Brumath,8721213.0,48.7331082,7.7004016,,FR,Europe/Paris,False,False,False
934,Schwindratzheim,Schwindratzheim,8721215.0,48.7536468,7.6005468,,FR,Europe/Paris,False,False,False
935,Hochfelden,Hochfelden,8721216.0,48.7554199,7.572355,,FR,Europe/Paris,False,False,False
936,Wilwisheim,Wilwisheim,8721217.0,48.745831,7.5077599,,FR,Europe/Paris,False,False,False
937,Dettwiller,Dettwiller,8721218.0,48.7518969,7.4652459,,FR,Europe/Paris,False,False,False
938,Strasbourg Roethig,Strasbourg Roethig,8721219.0,48.5632897,7.6950455,5260.0,FR,Europe/Paris,False,False,False
939,Zornhoff—Monswiller,Zornhoff-Monswiller,8721221.0,48.75265914104226,7.383874654769897,5890.0,FR,Europe/Paris,False,False,False
940,Graffenstaden,Graffenstaden,8721224.0,48.5324375,7.6897861,,FR,Europe/Paris,False,False,False
941,Geispolsheim,Geispolsheim,8721225.0,48.5190515,7.6843578,,FR,Europe/Paris,False,False,False
942,Fegersheim—Lipsheim,Fegersheim-Lipsheim,8721226.0,48.4905892,7.6724806,,FR,Europe/Paris,False,False,False
943,Limersheim,Limersheim,8721227.0,48.4617328,7.6603581,,FR,Europe/Paris,False,False,False
944,Bischheim,Bischheim,8721230.0,48.6118352,7.7422165,,FR,Europe/Paris,False,False,False
945,Beuvrages,Beuvrages,8734316.0,50.3894892,3.5061396,,FR,Europe/Paris,False,False,False
946,La Wantzenau,La Wantzenau,8721231.0,48.6651895,7.8247832,,FR,Europe/Paris,False,False,False
947,Kilstett,Kilstett,8721232.0,48.6793065,7.8549031,,FR,Europe/Paris,False,False,False
948,Gambsheim,Gambsheim,8721233.0,48.6948699,7.8791884,,FR,Europe/Paris,False,False,False
949,Herrlisheim,Herrlisheim,8721234.0,48.7279056,7.9102594,,FR,Europe/Paris,False,False,False
950,Drusenheim,Drusenheim,8721235.0,48.7659128,7.9478463,,FR,Europe/Paris,False,False,False
951,Bruyères,Bruyeres,8714415.0,48.204895,6.7187638,,FR,Europe/Paris,False,False,False
952,Buzy-en-Béarn,Buzy-en-Bearn,8767263.0,43.1482723,-0.4558864,,FR,Europe/Paris,False,False,False
953,Beauvais,Beauvais,8731351.0,49.42648,2.08869,,FR,Europe/Paris,False,False,False
954,Sessenheim,Sessenheim,8721236.0,48.7964628,7.9893194,,FR,Europe/Paris,False,False,False
955,Rountzenheim,Rountzenheim,8721237.0,48.820435,8.0119078,,FR,Europe/Paris,False,False,False
956,Roeschwoog,Roeschwoog,8721240.0,48.8334661,8.0298738,,FR,Europe/Paris,False,False,False
957,Brive-la-Gaillarde,Brive-la-Gaillarde,8759400.0,45.152618,1.528655,,FR,Europe/Paris,False,False,False
958,Roppenheim,Roppenheim,8721241.0,48.8510962,8.0623108,,FR,Europe/Paris,False,False,False
960,Seltz,Seltz,8721243.0,48.8965635,8.0986724,,FR,Europe/Paris,False,False,False
961,Munchhausen,Munchhausen,8721244.0,48.9237982,8.1409912,,FR,Europe/Paris,False,False,False
962,Mothern,Mothern,8721245.0,48.9347327,8.1615803,,FR,Europe/Paris,False,False,False
963,Lauterbourg,Lauterbourg,8721246.0,48.9676973,8.1826817,10552.0,FR,Europe/Paris,False,False,False
964,Hattmatt,Hattmatt,8721250.0,48.790637,7.421436,,FR,Europe/Paris,False,False,False
965,Dossenheim-sur-Zinsel,Dossenheim-sur-Zinsel,8721251.0,48.805902,7.402725,,FR,Europe/Paris,False,False,False
966,Neuwiller-les-Saverne,Neuwiller-les-Saverne,8721252.0,48.825062,7.405128,,FR,Europe/Paris,False,False,False
967,Uberach,Uberach,8721254.0,48.8491,7.631374,,FR,Europe/Paris,False,False,False
970,Kaltenhouse,Kaltenhouse,8721262.0,48.8,7.833333,,FR,Europe/Paris,False,False,False
971,Volgelsheim,Volgelsheim,,,,,FR,Europe/Paris,False,False,False
972,Kehl Grenze,Kehl Grenze,8721291.0,,,7659.0,DE,Europe/Berlin,False,False,False
973,Neubourg,Neubourg,8721312.0,48.838537,7.679943,,FR,Europe/Paris,False,False,False
974,Pfaffenhoffen,Pfaffenhoffen,8721313.0,48.85,7.616667,,FR,Europe/Paris,False,False,False
975,Bouxwiller,Bouxwiller,8721317.0,48.82655254803982,7.478808760643005,,FR,Europe/Paris,False,False,False
977,Gundershoffen,Gundershoffen,8721322.0,48.905261,7.6535345,,FR,Europe/Paris,False,False,False
978,Reichshoffen Ville,Reichshoffen Ville,8721324.0,48.9310582,7.658132,10638.0,FR,Europe/Paris,False,True,False
979,Niederbronn,Niederbronn,8721325.0,48.9523989,7.6341348,,FR,Europe/Paris,False,False,False
980,Philippsbourg,Philippsbourg,8721327.0,48.983333,7.566667,9041.0,FR,Europe/Paris,False,True,False
981,Bannstein,Bannstein,8721329.0,49.003139,7.502855,,FR,Europe/Paris,False,False,False
982,Eguelshardt,Eguelshardt,8721331.0,49.016667,7.5,,FR,Europe/Paris,False,False,False
983,Walbourg,Walbourg,8721340.0,48.8862164,7.8092705,,FR,Europe/Paris,False,False,False
984,Hoelschloch,Hoelschloch,8721341.0,48.9163252,7.8314949,,FR,Europe/Paris,False,False,False
985,Soultz-sous-Forêts,Soultz-sous-Forets,8721342.0,48.9347687,7.8827184,,FR,Europe/Paris,False,False,False
986,Hoffen,Hoffen,8721344.0,48.9312475,7.933587,,FR,Europe/Paris,False,False,False
987,Hunspach,Hunspach,8721345.0,48.9616379,7.9537409,,FR,Europe/Paris,False,False,False
988,Riedseltz,Riedseltz,8721346.0,48.991063,7.962988,,FR,Europe/Paris,False,False,False
989,Wissembourg,Wissembourg,8721347.0,49.0318895,7.9501435,5715.0,FR,Europe/Paris,False,True,False
991,Marienthal,Marienthal,8721360.0,48.781863,7.8231894,,FR,Europe/Paris,False,False,False
992,Bischwiller,Bischwiller,8721361.0,48.765753,7.8516536,,FR,Europe/Paris,False,False,False
993,Kurtzenhouse,Kurtzenhouse,8721366.0,48.741862,7.8130449,,FR,Europe/Paris,False,False,False
994,Weyersheim,Weyersheim,8721367.0,48.7177903,7.7971027,,FR,Europe/Paris,False,False,False
995,Hoerdt,Hoerdt,8721368.0,48.7029518,7.7794059,,FR,Europe/Paris,False,False,False
996,St-Lactensin—Tesseau,St-Lactensin-Tesseau,8746571.0,46.867446,1.473233,,FR,Europe/Paris,False,False,False
997,Wimmenau,Wimmenau,8721376.0,48.911413,7.427948,,FR,Europe/Paris,False,False,False
998,Ingwiller,Ingwiller,8721378.0,48.8723277,7.477155,,FR,Europe/Paris,False,False,False
999,Menchhoffen,Menchhoffen,8721381.0,48.859294,7.496195,,FR,Europe/Paris,False,False,False
1000,Bretenoux—Biars,Bretenoux-Biars,8759476.0,44.9273692,1.8436871,10702.0,FR,Europe/Paris,False,False,False
1001,Ettendorf,Ettendorf,8721382.0,48.812799,7.582455,,FR,Europe/Paris,False,False,False
1002,Alteckendorf,Alteckendorf,8721383.0,48.791655,7.597046,,FR,Europe/Paris,False,False,False
1003,Tauxigny,Tauxigny,8746572.0,47.251986,0.840095,,FR,Europe/Paris,False,False,False
1004,Griesbach le Bastberg,Griesbach le Bastberg,8721387.0,48.81472,7.435942,,FR,Europe/Paris,False,False,False
1005,Niedermodern,Niedermodern,8721388.0,48.84345200561577,7.614008188247681,,FR,Europe/Paris,False,False,False
1006,Ebersheim,Ebersheim,8721410.0,48.3099953,7.494471,,FR,Europe/Paris,False,False,False
1007,Kogenheim,Kogenheim,8721411.0,48.3389532,7.5353085,,FR,Europe/Paris,False,False,False
1008,Benfeld,Benfeld,8721412.0,48.3735367,7.584125,,FR,Europe/Paris,False,False,False
1009,Matzenheim,Matzenheim,8721413.0,48.3987556,7.6196003,,FR,Europe/Paris,False,False,False
1010,Erstein,Erstein,8721414.0,48.4229857,7.6387869,,FR,Europe/Paris,False,False,False
1011,Scherwiller,Scherwiller,8721420.0,48.2869344,7.4301867,,FR,Europe/Paris,False,False,False
1012,Dambach-la-Ville,Dambach-la-Ville,8721421.0,48.3216345,7.4355565,,FR,Europe/Paris,False,False,False
1013,Epfig,Epfig,8721422.0,48.3637643,7.4504053,,FR,Europe/Paris,False,False,False
1014,Eichhoffen,Eichhoffen,8721423.0,48.3824829,7.4495524,,FR,Europe/Paris,False,False,False
1015,Barr,Barr,8721424.0,48.4032933,7.4565189,,FR,Europe/Paris,False,False,False
1016,Gertwiller,Gertwiller,8721425.0,48.4133621,7.4663166,,FR,Europe/Paris,False,False,False
1017,Goxwiller,Goxwiller,8721427.0,48.4327551,7.4787296,,FR,Europe/Paris,False,False,False
1018,Obernai,Obernai,8721428.0,48.46219,7.48881,,FR,Europe/Paris,False,True,False
1019,Bischoffsheim,Bischoffsheim,8721429.0,48.48701,7.49772,,FR,Europe/Paris,False,False,False
1021,Rosheim,Rosheim,8721432.0,48.50525,7.49093,,FR,Europe/Paris,False,False,False
1022,Dorlisheim,Dorlisheim,8721433.0,48.5249915,7.4930546,,FR,Europe/Paris,False,False,False
1034,Lingolsheim,Lingolsheim,8721450.0,48.5594092,7.6781143,,FR,Europe/Paris,False,False,False
1035,Holtzheim,Holtzheim,8721451.0,48.555688,7.6630912,,FR,Europe/Paris,False,False,False
1037,Duppigheim,Duppigheim,8721453.0,48.5439674,7.5868091,,FR,Europe/Paris,False,False,False
1038,Duttlenheim,Duttlenheim,8721454.0,48.5453531,7.5661529,,FR,Europe/Paris,False,False,False
1039,Dachstein,Dachstein,8721455.0,48.5428546,7.5330038,,FR,Europe/Paris,False,False,False
1040,Mutzig,Mutzig,8721458.0,48.5337753,7.4621581,,FR,Europe/Paris,False,False,False
1041,Gresswiller,Gresswiller,8721459.0,48.53334,7.42468,,FR,Europe/Paris,False,False,False
1042,Heiligenberg—Mollkirch,Heiligenberg-Mollkirch,8721462.0,48.5273135,7.381426,,FR,Europe/Paris,False,False,False
1043,Urmatt,Urmatt,8721463.0,48.5257763,7.3385385,,FR,Europe/Paris,False,False,False
1044,Mullerhof,Mullerhof,8721464.0,48.52451,7.3119577,,FR,Europe/Paris,False,False,False
1045,Lutzelhouse,Lutzelhouse,8721465.0,48.51812,7.29391,,FR,Europe/Paris,False,False,False
1046,Wisches,Wisches,8721467.0,48.5076495,7.2700936,,FR,Europe/Paris,False,False,False
1047,Bayeux,Bayeux,8744406.0,49.269836,-0.698056,,FR,Europe/Paris,False,False,False
1048,Russ—Hersbach,Russ-Hersbach,8721468.0,48.4982211,7.2519246,,FR,Europe/Paris,False,False,False
1049,Schirmeck—La Broque,Schirmeck-La Broque,8721469.0,48.47973,7.21594,,FR,Europe/Paris,False,False,False
1050,Rothau,Rothau,8721472.0,48.4590026,7.2074902,,FR,Europe/Paris,False,False,False
1051,Fouday,Fouday,8721473.0,48.4248874,7.1874246,,FR,Europe/Paris,False,False,False
1052,St-Blaise-la-Roche—Poutay,St-Blaise-la-Roche-Poutay,8721474.0,48.4076094,7.165329,,FR,Europe/Paris,False,False,False
1053,Saulxures,Saulxures,8721475.0,48.3895555,7.1478548,,FR,Europe/Paris,False,False,False
1054,Bourg-Bruche,Bourg-Bruche,8721477.0,48.3598566,7.1371919,,FR,Europe/Paris,False,False,False
1055,Saales,Saales,8721478.0,48.3471556,7.1103726,,FR,Europe/Paris,False,False,False
1056,Chatenois,Chatenois,8721480.0,48.27620999024407,7.401410937309265,,FR,Europe/Paris,False,False,False
1057,Val-de-Villé,Val-de-Ville,8721481.0,48.284083,7.383326,,FR,Europe/Paris,False,False,False
1059,Lièpvre,Liepvre,8721483.0,48.266667,7.283333,,FR,Europe/Paris,False,False,False
1060,Ste-Croix-aux-Mines,Ste-Croix-aux-Mines,8721484.0,48.258535,7.246591,,FR,Europe/Paris,False,False,False
1061,Sainte-Marie-aux-Mines (Mairie),Sainte-Marie-aux-Mines (Mairie),8764093.0,48.24571107288924,7.182526588439941,,FR,Europe/Paris,False,False,False
1062,Réding,Reding,8721507.0,48.7429595,7.095885,,FR,Europe/Paris,False,False,False
1063,Igney—Avricourt,Igney-Avricourt,8721510.0,48.6467012,6.8053062,,FR,Europe/Paris,False,False,False
1064,Nouvel-Avricourt,Nouvel-Avricourt,8721511.0,48.646806,6.819252,,FR,Europe/Paris,False,False,False
1065,Rechicourt-le-Château,Rechicourt-le-Chateau,8721512.0,48.666667,6.85,,FR,Europe/Paris,False,False,False
1066,Béziers,Beziers,8778100.0,43.33633,3.218873,,FR,Europe/Paris,False,False,False
1067,Gondrexange,Gondrexange,8721513.0,48.683333,6.933333,,FR,Europe/Paris,False,False,False
1068,Heming,Heming,8721514.0,48.7,6.95,,FR,Europe/Paris,False,False,False
1069,Arzviller,Arzviller,8721515.0,48.716667,7.166667,17437.0,FR,Europe/Paris,False,False,False
1070,Lutzelbourg,Lutzelbourg,8721516.0,48.7299065,7.2516808,,FR,Europe/Paris,False,False,False
1071,Hommarting,Hommarting,8721517.0,48.733333,7.15,,FR,Europe/Paris,False,False,False
1072,St-Jean-de-Bassel,St-Jean-de-Bassel,8721523.0,48.80223,6.990722,,FR,Europe/Paris,False,False,False
1073,Gosselming,Gosselming,8721524.0,48.783333,7.0,,FR,Europe/Paris,False,False,False
1074,Dolving,Dolving,8721525.0,48.766667,7.016667,,FR,Europe/Paris,False,False,False
1075,Romelfing,Romelfing,8721526.0,48.833333,7.016667,,FR,Europe/Paris,False,False,False
1076,Cutting,Cutting,8721527.0,48.85,6.833333,,FR,Europe/Paris,False,False,False
1077,Domnon-les-Dieuze,Domnon-les-Dieuze,8721528.0,48.866667,6.816667,,FR,Europe/Paris,False,False,False
1078,Bassing,Bassing,8721529.0,48.866667,6.8,,FR,Europe/Paris,False,False,False
1079,Nebing,Nebing,8721530.0,48.9,6.816667,,FR,Europe/Paris,False,False,False
1080,Loudrefing,Loudrefing,8721531.0,48.85,6.866667,,FR,Europe/Paris,False,False,False
1081,Mittersheim,Mittersheim,8721532.0,48.866667,6.933333,9607.0,FR,Europe/Paris,False,True,False
1083,Oberstinzel,Oberstinzel,8721534.0,48.8,7.033333,,FR,Europe/Paris,False,False,False
1085,Sarraltroff,Sarraltroff,8721535.0,48.783333,7.05,9715.0,FR,Europe/Paris,False,False,False
1086,Bettborn,Bettborn,8721536.0,48.8,7.016667,,FR,Europe/Paris,False,False,False
1088,Fénétrange,Fenetrange,8721540.0,48.85,7.016667,9477.0,FR,Europe/Paris,False,True,False
1089,Niederstinzel,Niederstinzel,8721541.0,48.866667,7.033333,,FR,Europe/Paris,False,False,False
1090,Wolfskirchen,Wolfskirchen,8721542.0,48.882773,7.060676,,FR,Europe/Paris,False,False,False
1091,Bischtroff-sur-Sarre,Bischtroff-sur-Sarre,8721543.0,48.904752,7.073512,,FR,Europe/Paris,False,False,False
1092,Sarrewerden,Sarrewerden,8721544.0,48.916667,7.083333,,FR,Europe/Paris,False,False,False
1093,Sarre-Union,Sarre-Union,8721545.0,48.9360172,7.0850443,,FR,Europe/Paris,False,False,False
1094,Schopperten,Schopperten,8721548.0,48.9456499,7.055779,,FR,Europe/Paris,False,False,False
1095,Keskastel,Keskastel,8721549.0,48.9656988,7.0489315,,FR,Europe/Paris,False,False,False
1096,Oermingen,Oermingen,8721563.0,49.0003724,7.1317322,,FR,Europe/Paris,False,False,False
1097,Voellerdingen,Voellerdingen,8721564.0,,,,FR,Europe/Paris,False,False,False
1099,Diemeringen,Diemeringen,8721566.0,48.9405,7.18529,,FR,Europe/Paris,False,False,False
1100,Tieffenbach—Struth,Tieffenbach-Struth,8721569.0,48.9062169,7.25527,,FR,Europe/Paris,False,False,False
1101,Frohmuhl,Frohmuhl,8721571.0,48.907269,7.275464,,FR,Europe/Paris,False,False,False
1104,Chambourg Chopin,Chambourg Chopin,8733754.0,47.183333,0.966667,1316.0,FR,Europe/Paris,False,False,False
1105,Eycheil,Eycheil,8723209.0,42.966667,1.166667,,FR,Europe/Paris,False,False,False
1110,Erce,Erce,8723214.0,42.84786930113146,1.290196180343628,,FR,Europe/Paris,False,False,False
1111,Aulus-les-Bains,Aulus-les-Bains,8723215.0,42.8,1.333333,,FR,Europe/Paris,False,False,False
1112,Latrape,Latrape,8723216.0,43.24488229847452,1.2880772352218628,,FR,Europe/Paris,False,False,False
1113,Alaï,Alai,8772274.0,45.7521198,4.7717824,,FR,Europe/Paris,False,False,False
1114,Cravant-Bazarnes,Cravant-Bazarnes,8768364.0,47.6785079,3.6811741,,FR,Europe/Paris,False,False,False
1115,Lamure-sur-Azergues,Lamure-sur-Azergues,8772186.0,46.0610834,4.4921137,,FR,Europe/Paris,False,False,False
1116,Sorèze,Soreze,8723565.0,43.454232,2.072912,,FR,Europe/Paris,False,False,False
1119,Carcassonne,Carcassonne,8761528.0,43.218029,2.351824,,FR,Europe/Paris,False,False,False
1120,Balsièges,Balsieges,8711186.0,44.4820108,3.4560976,,FR,Europe/Paris,False,False,False
1121,Tournai Frontière,Tournai Frontiere,8724164.0,,,,BE,Europe/Brussels,False,False,False
1122,Froyennes,Froyennes,8724175.0,,,,BE,Europe/Brussels,False,False,False
1123,Châlons-en-Champagne,Chalons-en-Champagne,,48.833333,4.083333,,FR,Europe/Paris,True,False,False
1124,Châlons-en-Champagne Tissier,Chalons-en-Champagne Tissier,8732641.0,48.939702,4.36064,1123.0,FR,Europe/Paris,False,False,False
1125,Châlons-en-Champagne,Chalons-en-Champagne,8717400.0,48.955252,4.348656,1123.0,FR,Europe/Paris,True,False,False
1126,Châlons-en-Champagne Bagatelle,Chalons-en-Champagne Bagatelle,8732642.0,48.925562,4.371831,1123.0,FR,Europe/Paris,False,False,False
1128,Paris Gare du Nord,Paris Gare du Nord,8727102.0,48.880185,2.355151,4916.0,FR,Europe/Paris,False,False,False
1129,Paris Gare du Nord,Paris Gare du Nord,8727103.0,48.880185,2.355151,4916.0,FR,Europe/Paris,False,False,False
1137,Culmont-Chalindrey,Culmont-Chalindrey,8714212.0,47.8100902,5.4432217,,FR,Europe/Paris,False,False,False
1139,Capdenac,Capdenac,8761310.0,44.5782458,2.0779632,,FR,Europe/Paris,False,False,False
1150,Coudekerque-Branche,Coudekerque-Branche,8728140.0,51.0177069,2.3751425,,FR,Europe/Paris,False,False,False
1151,Château-du-Loir,Chateau-du-Loir,8739660.0,47.683392,0.414912,4832.0,FR,Europe/Paris,False,True,False
1159,Nanteuil-le-Haudouin,Nanteuil-le-Haudouin,8727157.0,49.14275,2.79459,,FR,Europe/Paris,False,False,False
1160,Ormoy-Villers,Ormoy-Villers,8727158.0,49.2003204,2.8379502,,FR,Europe/Paris,False,False,False
1161,Crépy-en-Valois,Crepy-en-Valois,8727159.0,49.231235,2.8864694,,FR,Europe/Paris,False,False,False
1162,Vaumoise,Vaumoise,8727160.0,49.2339406,2.9885685,,FR,Europe/Paris,False,False,False
1163,Villers-Cotterêts,Villers-Cotterets,8727173.0,49.25026,3.0937,,FR,Europe/Paris,False,False,False
1164,Longpont,Longpont,8727177.0,49.2726851,3.2301676,,FR,Europe/Paris,False,False,False
1165,Vierzy,Vierzy,8727178.0,49.2910309,3.2773026,,FR,Europe/Paris,False,False,False
1166,Crouy,Crouy,8727187.0,49.4037093,3.3569138,,FR,Europe/Paris,False,False,False
1167,Margival,Margival,8727188.0,49.4393862,3.4027491,,FR,Europe/Paris,False,False,False
1168,Jaux,Jaux,8727201.0,49.3868029,2.777316,,FR,Europe/Paris,False,False,False
1173,Choisy-au-Bac,Choisy-au-Bac,8727206.0,49.437771,2.877388,,FR,Europe/Paris,False,False,False
1175,Esches,Esches,8727209.0,49.2125205,2.1708125,,FR,Europe/Paris,False,False,False
1176,Vineuil-St-Firmin,Vineuil-St-Firmin,8727210.0,49.199933921573056,2.4912357330322266,,FR,Europe/Paris,False,False,False
1177,Courteuil,Courteuil,8727211.0,49.2,2.533333,,FR,Europe/Paris,False,False,False
1178,St-Nicolas-Aumont,St-Nicolas-Aumont,8727212.0,49.202097,2.549574,,FR,Europe/Paris,False,False,False
1179,Cannes,Cannes,,43.55,7.016667,,FR,Europe/Paris,True,False,False
1180,Cannes,Cannes,8775762.0,43.553839,7.019682,1179.0,FR,Europe/Paris,False,True,False
1181,Cannes—La Bocca,Cannes-La Bocca,8775761.0,43.548787,6.986601,1179.0,FR,Europe/Paris,False,False,False
1182,St-Jean-le-Centenier,St-Jean-le-Centenier,8776471.0,44.583333,4.533333,,FR,Europe/Paris,False,False,False
1183,Cholet,Cholet,8748430.0,47.065698,-0.869583,,FR,Europe/Paris,False,False,False
1185,Longueil-Annel,Longueil-Annel,8727219.0,49.4672441,2.8634086,,FR,Europe/Paris,False,False,False
1187,Corcy,Corcy,8727228.0,49.2550929,3.2157221,,FR,Europe/Paris,False,False,False
1188,Paris Gare du Nord 2,Paris Gare du Nord 2,8727401.0,,,4916.0,FR,Europe/Paris,False,False,False
1193,Clermont-Ferrand,Clermont-Ferrand,8773400.0,45.778945,3.100543,1557.0,FR,Europe/Paris,True,False,False
1198,Conflans—Jarny,Conflans-Jarny,8719266.0,49.1662895,5.8681853,,FR,Europe/Paris,False,False,False
1205,Laigneville,Laigneville,8727620.0,49.29276,2.44894,,FR,Europe/Paris,False,False,False
1206,Caen,Caen,8744400.0,49.176354,-0.347613,,FR,Europe/Paris,False,False,False
1207,Liancourt-Rantigny,Liancourt-Rantigny,8727621.0,49.32471,2.44532,,FR,Europe/Paris,False,False,False
1213,Orry-la-Ville—Coye,Orry-la-Ville-Coye,8727627.0,49.13895,2.49,,FR,Europe/Paris,False,False,False
1215,Longueil-Ste-Marie,Longueil-Ste-Marie,8727630.0,49.3425377,2.7175537,,FR,Europe/Paris,False,False,False
1216,Chevrières,Chevrieres,8727631.0,49.3373064,2.6828025,,FR,Europe/Paris,False,False,False
1217,Pont-Ste-Maxence,Pont-Ste-Maxence,8727632.0,49.30974,2.60289,,FR,Europe/Paris,False,False,False
1219,Rieux-Angicourt,Rieux-Angicourt,8727635.0,49.29866,2.5214,,FR,Europe/Paris,False,False,False
1221,Villers-St-Paul,Villers-St-Paul,8727637.0,49.2825762,2.4899067,,FR,Europe/Paris,False,False,False
1239,Chagny,Chagny,8771357.0,46.907269,4.749682,,FR,Europe/Paris,False,False,False
1243,Montataire,Montataire,8727661.0,49.2510365,2.4362155,,FR,Europe/Paris,False,False,False
1250,Bornel—Belle-Église,Bornel-Belle-Eglise,8727671.0,49.19471,2.20717,,FR,Europe/Paris,False,False,False
1251,Chaulnes,Chaulnes,8731347.0,49.8076201,2.8011421,,FR,Europe/Paris,False,False,False
1252,Chambly,Chambly,8727672.0,49.16362,2.24048,,FR,Europe/Paris,False,False,False
1253,Le Meux-la-Croix-St-Ouen,Le Meux-la-Croix-St-Ouen,8727673.0,49.3594029,2.7532645,,FR,Europe/Paris,False,False,False
1254,Thourotte,Thourotte,8727674.0,49.4760722,2.8830021,,FR,Europe/Paris,False,False,False
1256,Ribécourt,Ribecourt,8727676.0,49.50633,2.92714,,FR,Europe/Paris,False,False,False
1257,Châteauroux,Chateauroux,8759700.0,46.809737,1.699536,1503.0,FR,Europe/Paris,True,False,False
1258,Ourscamps,Ourscamps,8727677.0,49.5341405,2.9540017,,FR,Europe/Paris,False,False,False
1259,Noyon,Noyon,8727678.0,49.57736,3.00641,,FR,Europe/Paris,False,False,False
1261,Avilly—St-Léonard,Avilly-St-Leonard,8727826.0,49.2,2.533333,,FR,Europe/Paris,False,False,False
1262,Plainval,Plainval,8727910.0,49.533333,2.45,,FR,Europe/Paris,False,False,False
1263,Domfront Domélien,Domfront Domelien,8727911.0,49.603052,2.527254,,FR,Europe/Paris,False,False,False
1264,Bergues,Bergues,8728110.0,50.96901,2.42574,,FR,Europe/Paris,False,False,False
1265,Esquelbecq,Esquelbecq,8728111.0,50.8894369,2.4121536,,FR,Europe/Paris,False,False,False
1266,Arnèke,Arneke,8728112.0,50.831522,2.4083063,,FR,Europe/Paris,False,False,False
1267,Cassel,Cassel,8728113.0,50.7875916,2.4599722,,FR,Europe/Paris,False,False,False
1268,Gravelines,Gravelines,8728124.0,50.978736,2.1232852,,FR,Europe/Paris,False,False,False
1269,Bourbourg,Bourbourg,8728127.0,50.952267,2.1942305,,FR,Europe/Paris,False,False,False
1270,Grande-Synthe,Grande-Synthe,8728131.0,51.0026884,2.3133547,,FR,Europe/Paris,False,False,False
1271,Courghain,Courghain,8728133.0,50.99702883034289,2.2941899299621578,,FR,Europe/Paris,False,False,False
1272,Pont-d’Ardres,Pont-d'Ardres,8728141.0,50.8920781,1.9712144,,FR,Europe/Paris,False,False,False
1273,Audruicq,Audruicq,8728142.0,50.87567,2.07636,,FR,Europe/Paris,False,False,False
1274,Watten-Éperlecques,Watten-Eperlecques,8728143.0,50.8254043,2.2079599,,FR,Europe/Paris,False,False,False
1275,Renescure,Renescure,8728145.0,50.732006,2.3713644,,FR,Europe/Paris,False,False,False
1276,Ebblinghem,Ebblinghem,8728146.0,50.7306459,2.409148,,FR,Europe/Paris,False,False,False
1281,Hellemmes,Hellemmes,8728606.0,50.6226402,3.1149328,,FR,Europe/Paris,False,False,False
1282,Loos-les-Lille,Loos-les-Lille,8728611.0,50.6128165,3.0170581,,FR,Europe/Paris,False,False,False
1283,Steenwerck,Steenwerck,8728616.0,50.713459,2.7855769,,FR,Europe/Paris,False,False,False
1284,Bailleul,Bailleul,8728617.0,50.72916,2.73445,,FR,Europe/Paris,False,False,False
1285,Strazeele,Strazeele,8728620.0,50.713492,2.6312181,,FR,Europe/Paris,False,False,False
1286,Wambrechies,Wambrechies,8728622.0,50.6812648,3.0402974,,FR,Europe/Paris,False,False,False
1287,Quesnoy-sur-Deûle,Quesnoy-sur-Deule,8728624.0,50.7081361,2.9952832,,FR,Europe/Paris,False,False,False
1288,Comines,Comines,8728626.0,50.7608973,3.0096253,,FR,Europe/Paris,False,False,False
1289,Pérenchies,Perenchies,8728627.0,50.66697,2.97729,,FR,Europe/Paris,False,False,False
1290,Santes,Santes,8728640.0,50.5920123,2.961977,,FR,Europe/Paris,False,False,False
1291,Wavrin,Wavrin,8728641.0,50.57443,2.93672,,FR,Europe/Paris,False,False,False
1292,La Fontaine,La Fontaine,8728642.0,50.5661459,2.9261079,,FR,Europe/Paris,False,False,False
1295,Phalempin,Phalempin,8728650.0,50.5154,3.0199,,FR,Europe/Paris,False,False,False
1296,Wattignies,Wattignies,8728652.0,50.5793139,3.051975,,FR,Europe/Paris,False,False,False
1297,Ronchin,Ronchin,8728653.0,50.6045664,3.0783734,,FR,Europe/Paris,False,False,False
1298,Rosult,Rosult,8728656.0,50.4563667,3.3490115,,FR,Europe/Paris,False,False,False
1299,Landas,Landas,8728657.0,50.4687775,3.290568,,FR,Europe/Paris,False,False,False
1301,Templeuve,Templeuve,8728662.0,50.52863,3.17559,,FR,Europe/Paris,False,False,False
1302,Fretin,Fretin,8728664.0,50.5599254,3.1495133,,FR,Europe/Paris,False,False,False
1303,Tressin,Tressin,8728674.0,50.6118114,3.1895634,,FR,Europe/Paris,False,False,False
1304,Cysoing,Cysoing,8728678.0,50.5620393,3.2098913,,FR,Europe/Paris,False,False,False
1305,Genech,Genech,8728680.0,50.5306894,3.2205033,,FR,Europe/Paris,False,False,False
1306,Pont-de-Bois,Pont-de-Bois,8728683.0,50.62403,3.13026,,FR,Europe/Paris,False,False,False
1307,Lesquin,Lesquin,8728684.0,50.59068,3.11771,,FR,Europe/Paris,False,False,False
1308,Annappes,Annappes,8728685.0,50.6227708,3.1475351,,FR,Europe/Paris,False,False,False
1309,Baisieux,Baisieux,8728687.0,50.61845,3.2347796,,FR,Europe/Paris,False,False,False
1313,Mouscron,Mouscron,8728698.0,,,,BE,Europe/Brussels,False,False,False
1314,Lezennes,Lezennes,8728710.0,50.6205699,3.0986481,,FR,Europe/Paris,False,False,False
1315,Mont-de-Terre,Mont-de-Terre,8728712.0,50.6176672,3.0966031,,FR,Europe/Paris,False,False,False
1316,Chambourg,Chambourg,,47.183333,0.966667,,FR,Europe/Paris,True,False,False
1317,Chambourg,Chambourg,8757146.0,47.1821629,0.9648363,1316.0,FR,Europe/Paris,False,True,False
1318,Nieppe,Nieppe,8728715.0,50.6966975,2.8289655,,FR,Europe/Paris,False,False,False
1319,Marquette,Marquette,8728716.0,50.6724025,3.0510262,,FR,Europe/Paris,False,False,False
1320,Deûlémont,Deulemont,8728718.0,50.7159172,2.9933077,,FR,Europe/Paris,False,False,False
1321,Ste-Marguerite,Ste-Marguerite,8728719.0,50.7403764,3.0092045,,FR,Europe/Paris,False,False,False
1322,Clisson,Clisson,8748144.0,47.086142,-1.286172,,FR,Europe/Paris,False,False,False
1323,Anstaing,Anstaing,8728721.0,50.6040201,3.1933039,,FR,Europe/Paris,False,False,False
1324,Bouvines,Bouvines,8728723.0,50.5737864,3.2021971,,FR,Europe/Paris,False,False,False
1325,Cobrieux,Cobrieux,8728724.0,50.5402798,3.2191247,,FR,Europe/Paris,False,False,False
1326,Lille Porte de Douai,Lille Porte de Douai,8728725.0,50.6119054,3.075837,4652.0,FR,Europe/Paris,False,False,False
1328,Ennevelin,Ennevelin,8728727.0,50.5492981,3.1586612,,FR,Europe/Paris,False,False,False
1329,Challans,Challans,8748139.0,46.843962,-1.871879,,FR,Europe/Paris,False,False,False
1330,Nortkerque,Nortkerque,8728729.0,50.8829544,2.0231501,,FR,Europe/Paris,False,False,False
1331,Ruminghem,Ruminghem,8728730.0,50.8620636,2.1576706,,FR,Europe/Paris,False,False,False
1332,Casino—Lacroix-Laval,Casino-Lacroix-Laval,8720855.0,45.7878115,4.7309383,4862.0,FR,Europe/Paris,False,False,False
1335,Recquignies,Recquignies,8729502.0,50.2840466,4.0445029,,FR,Europe/Paris,False,False,False
1337,Anor,Anor,8729505.0,49.984892,4.0929803,,FR,Europe/Paris,False,False,False
1338,Charmes-sur-Rhône,Charmes-sur-Rhone,8776151.0,44.866667,4.833333,,FR,Europe/Paris,False,False,False
1339,Chambéry Challes-les-Eaux,Chambery Challes-les-Eaux,8774100.0,45.571302,5.919547,26828.0,FR,Europe/Paris,False,False,False
1340,Le Cateau,Le Cateau,8729522.0,50.0914606,3.5400454,,FR,Europe/Paris,False,False,False
1341,Louvroil,Louvroil,8729553.0,50.2683469,3.9535768,,FR,Europe/Paris,False,False,False
1342,Hautmont,Hautmont,8729556.0,50.25398,3.91522,,FR,Europe/Paris,False,False,False
1343,Landrecies,Landrecies,8729564.0,50.1283138,3.681997,,FR,Europe/Paris,False,False,False
1344,Sains-du-Nord,Sains-du-Nord,8729570.0,50.0889485,4.0016955,,FR,Europe/Paris,False,False,False
1345,Avesnelles,Avesnelles,8729572.0,50.1185513,3.9485876,,FR,Europe/Paris,False,False,False
1346,Avesnes,Avesnes,8729573.0,50.12674,3.93295,,FR,Europe/Paris,False,False,False
1347,Dompierre (Hauts-de-France),Dompierre (Hauts-de-France),8729577.0,50.146144,3.871144,,FR,Europe/Paris,False,False,False
1348,Velle-le-Châtel,Velle-le-Chatel,8718542.0,47.602035,6.047214,,FR,Europe/Paris,False,False,False
1349,Colmar,Colmar,,48.083333,7.366667,,FR,Europe/Paris,True,False,False
1350,Leval,Leval,8729579.0,50.1845311,3.8366811,,FR,Europe/Paris,False,False,False
1351,Berlaimont,Berlaimont,8729580.0,50.1980095,3.8105316,,FR,Europe/Paris,False,False,False
1352,Le Quesnoy,Le Quesnoy,8729585.0,50.25021,3.64552,,FR,Europe/Paris,False,False,False
1354,Quevy Frontière,Quevy Frontiere,8729592.0,,,6003.0,BE,Europe/Brussels,False,False,False
1355,Marle-sur-Serre,Marle-sur-Serre,8729609.0,49.747192,3.7695801,,FR,Europe/Paris,False,False,False
1356,Vervins,Vervins,8729612.0,49.8299236,3.8936313,,FR,Europe/Paris,False,False,False
1357,Origny-en-Thiérache,Origny-en-Thierache,8729614.0,49.8906693,4.0241558,,FR,Europe/Paris,False,False,False
1358,Crépy-Couvron,Crepy-Couvron,8729615.0,49.6233401,3.5167165,,FR,Europe/Paris,False,False,False
1359,Cognac,Cognac,8749144.0,45.684682,-0.326112,,FR,Europe/Paris,False,False,False
1360,Clacy-Mons,Clacy-Mons,8729617.0,49.5439229,3.5766816,,FR,Europe/Paris,False,False,False
1361,Bohain,Bohain,8729626.0,49.9884143,3.4431289,,FR,Europe/Paris,False,False,False
1362,Fresnoy-le-Grand,Fresnoy-le-Grand,8729629.0,49.9501964,3.43268,,FR,Europe/Paris,False,False,False
1363,Athiès-sous-Laon,Athies-sous-Laon,8729632.0,49.610126,3.610166,,FR,Europe/Paris,False,False,False
1364,Samoussy,Samoussy,8729634.0,49.583932,3.730954,,FR,Europe/Paris,False,False,False
1366,Bucy-Les-Pierrepont,Bucy-Les-Pierrepont,8729636.0,49.645058,3.898882,,FR,Europe/Paris,False,False,False
1367,Clermont-lès-Fermes,Clermont-les-Fermes,8729637.0,49.666138,3.935162,,FR,Europe/Paris,False,False,False
1368,Montcornet,Montcornet,8729638.0,49.694508,4.030754,,FR,Europe/Paris,False,False,False
1369,Rozoy-sur-Serre Place Neuville,Rozoy-sur-Serre Place Neuville,8729639.0,49.708792,4.123289,17481.0,FR,Europe/Paris,False,False,False
1371,Montescourt,Montescourt,8729641.0,49.7380842,3.2519756,,FR,Europe/Paris,False,False,False
1372,Appilly,Appilly,8729645.0,49.5808826,3.1221903,,FR,Europe/Paris,False,False,False
1373,Anizy-Pinon,Anizy-Pinon,8729656.0,49.4960073,3.4487637,,FR,Europe/Paris,False,False,False
1374,Versigny,Versigny,8729660.0,49.6574494,3.4335692,,FR,Europe/Paris,False,False,False
1375,Chauny,Chauny,8729661.0,49.61119,3.22354,,FR,Europe/Paris,False,False,False
1377,La Fère,La Fere,8729663.0,49.65802,3.36981,,FR,Europe/Paris,False,False,False
1378,Flavy-le-Martel,Flavy-le-Martel,8729687.0,49.7187375,3.1905076,,FR,Europe/Paris,False,False,False
1380,Collonges—Fontaines,Collonges-Fontaines,8772122.0,45.8291102,4.8466136,,FR,Europe/Paris,False,False,False
1382,Viry-Noureuil,Viry-Noureuil,8729705.0,49.6274493,3.2503611,,FR,Europe/Paris,False,False,False
1384,La Bouteille,La Bouteille,8729708.0,49.8596168,3.9817635,,FR,Europe/Paris,False,False,False
1385,La Neuville-sous-Laon,La Neuville-sous-Laon,8729710.0,49.57082365419704,3.5968798398971558,,FR,Europe/Paris,False,False,False
1386,Verneuil-sur-Serre,Verneuil-sur-Serre,8729711.0,49.6486805,3.6677085,,FR,Europe/Paris,False,False,False
1387,Dercy-Froidmont,Dercy-Froidmont,8729714.0,49.7025404,3.6918473,,FR,Europe/Paris,False,False,False
1389,Voyenne,Voyenne,8729715.0,49.7260708,3.7202555,,FR,Europe/Paris,False,False,False
1391,Coutras,Coutras,8758451.0,45.03661,-0.13169,,FR,Europe/Paris,False,False,False
1392,Gizy,Gizy,8729717.0,49.597092,3.770777,,FR,Europe/Paris,False,False,False
1393,Chivres-en-Laonnois,Chivres-en-Laonnois,8729719.0,49.632761,3.843346,,FR,Europe/Paris,False,False,False
1394,Chaourse,Chaourse,8729720.0,49.70405588474763,3.998165130615234,,FR,Europe/Paris,False,False,False
1395,Magny,Magny,8729721.0,49.7177,4.059,,FR,Europe/Paris,False,False,False
1396,Chéry-les-Rozoy Place de l’Église,Chery-les-Rozoy Place de l'Eglise,8729722.0,49.719993,4.091152,,FR,Europe/Paris,False,False,False
1397,Rouvroy—Résigny—Grandrieux,Rouvroy-Resigny-Grandrieux,8729723.0,,,,FR,Europe/Paris,False,False,False
1398,Le Fréty St-Gorgon,Le Frety St-Gorgon,8729725.0,49.733333,4.283333,,FR,Europe/Paris,False,False,False
